,Unnamed: 0,EVENT_DATE,LATITUDE,LONGITUDE,road,state2,place
0,0,2020-05-07,40.714,-74.006,Chambers Street,NY,New York
1,1,2020-05-09,39.769,-86.15799999999999,Monument Circle,IN,Indianapolis
2,2,2020-05-17,31.15,-81.492,0,GA,Brunswick
3,3,2020-05-21,43.038,-87.906,North Jefferson Street,WI,Milwaukee
4,4,2020-05-23,41.58600000000001,-93.623,Skywalk,IA,Des Moines
5,5,2020-05-25,38.559,-89.874,0,IL,Shiloh
6,6,2020-05-26,42.28,-83.74600000000002,South Fifth Avenue,MI,Ann Arbor
7,7,2020-05-26,41.583,-87.5,0,IN,Hammond
8,8,2020-05-26,42.243,-83.618,0,MI,Ypsilanti
9,9,2020-05-26,29.76,-95.364,North Travis Tunnel,TX,Houston
10,10,2020-05-26,44.951,-93.095,East 10th Street,MN,St. Paul
11,11,2020-05-26,42.21,-83.72399999999998,0,MI,Pittsfield Charter Township
12,12,2020-05-27,45.523,-122.676,West Burnside Street,OR,Portland
13,13,2020-05-27,44.963,-92.965,10th Street North,MN,Oakdale
14,14,2020-05-27,42.243,-83.618,0,MI,Ypsilanti
15,15,2020-05-27,35.227,-80.843,East Trade Street,NC,Charlotte
16,16,2020-05-27,25.933000000000003,-81.711,0,FL,Marco Island
17,17,2020-05-27,46.787,-92.098,East Superior Street,MN,Duluth
18,18,2020-05-27,32.838,-116.972,0,CA,Santee
19,19,2020-05-27,38.58,-121.496,K Street,CA,Sacramento
20,20,2020-05-27,36.154,-95.993,West 2nd Street,OK,Tulsa
21,21,2020-05-27,39.739,-104.991,Bannock Street,CO,Denver
22,22,2020-05-27,44.971,-92.965,Hadley Avenue North,MN,Oakdale
23,23,2020-05-27,42.28,-83.74600000000002,South Fifth Avenue,MI,Ann Arbor
24,24,2020-05-27,42.21,-83.72399999999998,0,MI,Pittsfield Charter Township
25,25,2020-05-28,42.279,-71.416,Kendall Street,MA,Framingham
26,26,2020-05-28,40.585,-105.085,West Oak Street,CO,Fort Collins
27,27,2020-05-28,42.243,-83.618,0,MI,Ypsilanti
28,28,2020-05-28,45.523,-122.676,West Burnside Street,OR,Portland
29,29,2020-05-28,41.974,-91.677,2nd Avenue Southwest,IA,Cedar Rapids
30,30,2020-05-28,42.243,-83.618,0,MI,Ypsilanti
31,31,2020-05-28,34.019,-118.496,5th Street,CA,Santa Monica
32,32,2020-05-28,48.24100000000001,-122.371,0,WA,Stanwood
33,33,2020-05-28,35.15,-90.04899999999998,North 2nd Street,TN,Memphis
34,34,2020-05-28,33.521,-86.802,5th Avenue North,AL,Birmingham
35,35,2020-05-28,42.359,-71.064,Beacon Street,MA,Boston
36,36,2020-05-28,46.358,-94.201,0,MN,Brainerd
37,37,2020-05-28,41.85,-87.65,West Lumber Street,IL,Chicago
38,38,2020-05-28,46.787,-92.098,East Superior Street,MN,Duluth
39,39,2020-05-28,45.52,-123.111,0,OR,Forest Grove
40,40,2020-05-28,39.831,-77.23100000000002,0,PA,Gettysburg
41,41,2020-05-28,42.734,-84.555,West Ottawa Street,MI,Lansing
42,42,2020-05-28,36.175,-115.137,Las Vegas Boulevard North,NV,Las Vegas
43,43,2020-05-28,34.043,-118.25,East 7th Street,CA,Los Angeles
44,44,2020-05-28,37.804,-122.271,Broadway,CA,Oakland
45,45,2020-05-28,42.21,-83.72399999999998,0,MI,Pittsfield Charter Township
46,46,2020-05-28,37.334,-121.891,South Market Street,CA,San Jose
47,47,2020-05-28,44.948,-93.348,0,MN,Saint Louis Park
48,48,2020-05-28,38.104,-122.257,Quincy Alley,CA,Vallejo
49,49,2020-05-28,28.496,-81.535,0,FL,0
50,50,2020-05-28,38.744,-90.305,0,MO,Ferguson
51,51,2020-05-28,36.313,-82.353,Ashe Street,TN,Johnson City
52,52,2020-05-28,38.834,-104.821,East Pikes Peak Avenue,CO,Colorado Springs
53,53,2020-05-28,44.971,-92.965,Hadley Avenue North,MN,Oakdale
54,54,2020-05-28,42.28,-83.74600000000002,South Fifth Avenue,MI,Ann Arbor
55,55,2020-05-28,37.328,-87.499,0,KY,Madisonville
56,56,2020-05-29,35.15,-90.04899999999998,North 2nd Street,TN,Memphis
57,57,2020-05-29,37.386,-122.084,West El Camino Real,CA,Mountain View
58,58,2020-05-29,28.805,-97.004,North Main Street,TX,Victoria
59,59,2020-05-29,61.218,-149.9,West 5th Avenue,AK,Anchorage
60,60,2020-05-29,41.14,-104.82,West 24th Street,WY,Cheyenne
61,61,2020-05-29,40.808,-96.7,K Street,NE,Lincoln
62,62,2020-05-29,40.586,-122.39,Pine Street,CA,Redding
63,63,2020-05-29,35.687,-105.939,East San Francisco Street,NM,Santa Fe
64,64,2020-05-29,32.351,-95.301,West Erwin Street,TX,Tyler
65,65,2020-05-29,42.359,-71.064,Beacon Street,MA,Boston
66,66,2020-05-29,40.015,-105.27,Arapahoe Avenue,CO,Boulder
67,67,2020-05-29,40.585,-105.085,West Oak Street,CO,Fort Collins
68,68,2020-05-29,40.558,-85.65899999999998,0,IN,Marion
69,69,2020-05-29,41.308,-72.928,College Street,CT,New Haven
70,70,2020-05-29,37.779,-122.419,Polk Street,CA,San Francisco
71,71,2020-05-29,35.37300000000001,-119.019,Chester Avenue,CA,Bakersfield
72,72,2020-05-29,48.76,-122.488,Broadway,WA,Bellingham
73,73,2020-05-29,37.03,-76.345,0,VA,Hampton
74,74,2020-05-29,46.589,-112.039,West 6th Avenue,MT,Helena
75,75,2020-05-29,39.029,-96.831,0,KS,Junction City
76,76,2020-05-29,39.116,-94.627,Minnesota Avenue,KS,Kansas City
77,77,2020-05-29,35.96,-83.92200000000003,Cumberland Avenue,TN,Knoxville
78,78,2020-05-29,38.041,-84.50399999999998,Avenue of Champions,KY,Lexington
79,79,2020-05-29,44.958,-124.018,0,OR,Lincoln City
80,80,2020-05-29,39.183,-96.571,Osage Street,KS,Manhattan
81,81,2020-05-29,32.299,-90.186,East Pearl Street,MS,Jackson
82,82,2020-05-29,31.347,-89.26,0,MS,Petal
83,83,2020-05-29,42.493,-92.343,Washington Street,IA,Waterloo
84,84,2020-05-29,32.768,-117.028,0,CA,La Mesa
85,85,2020-05-29,29.955,-90.075,South Saratoga Street,LA,New Orleans
86,86,2020-05-29,30.421,-87.21700000000001,East Cervantes Street,FL,Pensacola
87,87,2020-05-29,34.257,-85.165,0,GA,Rome
88,88,2020-05-29,32.084,-81.1,North Fahm Street,GA,Savannah
89,89,2020-05-29,30.438,-84.28,Apalachee Parkway,FL,Tallahassee
90,90,2020-05-29,41.284,-84.35600000000002,0,OH,Defiance
91,91,2020-05-29,38.029,-78.477,0,VA,Charlottesville
92,92,2020-05-29,38.89,-77.009,Cannon House Tunnel,DC,Washington
93,93,2020-05-29,42.28,-83.74600000000002,South Fifth Avenue,MI,Ann Arbor
94,94,2020-05-29,42.243,-83.618,0,MI,Ypsilanti
95,95,2020-05-29,43.594,-83.889,0,MI,City of Bay City
96,96,2020-05-29,46.188,-123.831,0,OR,Astoria
97,97,2020-05-29,33.961,-83.37799999999999,North Lumpkin Street,GA,Athens-Clarke County Unified Government
98,98,2020-05-29,37.23,-80.414,0,VA,Blacksburg
99,99,2020-05-29,40.484,-88.994,North Main Street,IL,Bloomington
100,100,2020-05-29,39.017,-94.276,Southwest Jones Street,MO,Blue Springs
101,101,2020-05-29,31.15,-81.491,0,GA,Brunswick
102,102,2020-05-29,40.799,-81.378,Tuscarawas Street West,OH,Canton
103,103,2020-05-29,30.628,-96.334,University Drive East,TX,College Station
104,104,2020-05-29,38.952,-92.334,North Providence Road,MO,Columbia
105,105,2020-05-29,32.686,-117.183,0,CA,Coronado
106,106,2020-05-29,40.299,-83.068,0,OH,Delaware
107,107,2020-05-29,37.275,-107.88,0,CO,Durango
108,108,2020-05-29,41.682,-85.977,South 5th Street,IN,Elkhart
109,109,2020-05-29,42.085,-76.809,0,NY,Elmira
110,110,2020-05-29,35.198,-111.651,East Historic Route 66,AZ,Flagstaff
111,111,2020-05-29,45.52,-123.111,0,OR,Forest Grove
112,112,2020-05-29,32.725,-97.321,South Freeway,TX,Fort Worth
113,113,2020-05-29,41.88800000000001,-88.305,0,IL,Geneva
114,114,2020-05-29,41.767,-72.676,Asylum Street,CT,Hartford
115,115,2020-05-29,43.467,-112.034,West Stone Run Lane,ID,Idaho Falls
116,116,2020-05-29,36.313,-82.353,Ashe Street,TN,Johnson City
117,117,2020-05-29,20.889,-156.47299999999996,0,HI,Kahului
118,118,2020-05-29,42.29,-85.586,West South Street,MI,Kalamazoo
119,119,2020-05-29,43.801,-91.24,West Avenue South,WI,La Crosse
120,120,2020-05-29,32.319,-106.77,Avenida Encantada,NM,Las Cruces
121,121,2020-05-29,46.54600000000001,-87.40700000000002,West Bluff Street,MI,Marquette
122,122,2020-05-29,37.906,-122.545,0,CA,Mill Valley
123,123,2020-05-29,46.872,-113.994,East Broadway Street,MT,Missoula
124,124,2020-05-29,39.63,-79.956,0,WV,Morgantown
125,125,2020-05-29,41.355,-72.1,Huntington Street,CT,New London
126,126,2020-05-29,40.783,-73.96600000000002,86th Street Transverse Road,NY,New York
127,127,2020-05-29,41.223,-111.974,24th Street,UT,Ogden
128,128,2020-05-29,35.466,-97.513,South Edward King Gaylord Boulevard,OK,Oklahoma City
129,129,2020-05-29,34.198,-119.18,North 5th Street,CA,Oxnard
130,130,2020-05-29,40.441,-79.99600000000002,Grant Street,PA,Pittsburgh
131,131,2020-05-29,42.21,-83.72399999999998,0,MI,Pittsfield Charter Township
132,132,2020-05-29,44.7,-73.453,Margaret Street,NY,Plattsburgh
133,133,2020-05-29,42.639,-83.291,0,MI,Pontiac
134,134,2020-05-29,34.106,-117.596,Foothill Boulevard,CA,Rancho Cucamonga
135,135,2020-05-29,44.022,-92.47,1st Street Southwest,MN,Rochester
136,136,2020-05-29,40.778,-111.888,0,UT,Salt Lake City
137,137,2020-05-29,29.883000000000006,-97.941,0,TX,San Marcos
138,138,2020-05-29,42.033,-88.085,0,IL,0
139,139,2020-05-29,42.497,-96.405,Pierce Street,IA,Sioux City
140,140,2020-05-29,42.102,-72.59,Pynchon Street,MA,Springfield
141,141,2020-05-29,45.56100000000001,-94.162,Courthouse Square,MN,St. Cloud
142,142,2020-05-29,48.24100000000001,-122.371,0,WA,Stanwood
143,143,2020-05-29,37.495,-120.847,East Olive Avenue,CA,Turlock
144,144,2020-05-29,44.959,-89.63,1st Street,WI,Wausau
145,145,2020-05-29,41.034,-73.763,0,NY,White Plains
146,146,2020-05-29,28.496,-81.535,0,FL,0
147,147,2020-05-29,39.963,-76.72800000000002,North George Street,PA,York
148,148,2020-05-29,34.019,-118.496,5th Street,CA,Santa Monica
149,149,2020-05-29,40.116,-88.244,0,IL,Champaign
150,150,2020-05-29,38.278,-85.73700000000002,0,IN,Jeffersonville
151,151,2020-05-29,39.767,-94.848,North 10th Street,MO,St. Joseph
152,152,2020-05-29,38.45,-78.869,Court Square,VA,Harrisonburg
153,153,2020-05-29,36.737,-119.786,Tulare Street,CA,Fresno
154,154,2020-05-29,21.307,-157.858,Hotel Street Mall,HI,Honolulu
155,155,2020-05-29,36.175,-115.137,Las Vegas Boulevard North,NV,Las Vegas
156,156,2020-05-29,43.657,-70.259,Monument Square,ME,Portland
157,157,2020-05-29,42.416,-71.156,0,MA,Arlington
158,158,2020-05-29,42.886,-78.878,0,NY,Buffalo
159,159,2020-05-29,41.371,-73.414,0,CT,Bethel
160,160,2020-05-29,36.99,-86.444,East 12th Avenue,KY,Bowling Green
161,161,2020-05-29,30.275,-97.74,East 11th Street,TX,Austin
162,162,2020-05-29,41.246,-75.881,Public Square,PA,Wilkes-Barre
163,163,2020-05-29,29.795,-98.732,0,TX,Boerne
164,164,2020-05-29,47.75,-90.334,0,MN,Grand Marais
165,165,2020-05-29,34.287,-118.882,0,CA,Moorpark
166,166,2020-05-29,27.596,-81.506,0,FL,0
167,167,2020-05-29,35.613,-77.366,0,NC,Greenville
168,168,2020-05-30,33.16,-117.339,0,CA,Carlsbad
169,169,2020-05-30,35.994,-78.899,East Main Street,NC,Durham
170,170,2020-05-30,26.311,-98.163,West Chavez Street,TX,Edinburg
171,171,2020-05-30,21.307,-157.858,Hotel Street Mall,HI,Honolulu
172,172,2020-05-30,27.504,-99.507,Lincoln Street,TX,Laredo
173,173,2020-05-30,29.955,-90.075,South Saratoga Street,LA,New Orleans
174,174,2020-05-30,33.394,-104.525,West 2nd Street,NM,Roswell
175,175,2020-05-30,61.218,-149.9,West 5th Avenue,AK,Anchorage
176,176,2020-05-30,38.834,-104.821,East Pikes Peak Avenue,CO,Colorado Springs
177,177,2020-05-30,37.975,-87.556,East Sycamore Street,IN,Evansville
178,178,2020-05-30,42.225,-121.782,0,OR,Klamath Falls
179,179,2020-05-30,40.845,-73.865,Hunt Avenue,NY,New York
180,180,2020-05-30,41.676,-86.25,South Michigan Street,IN,South Bend
181,181,2020-05-30,39.467,-87.414,North 3rd Street,IN,Terre Haute
182,182,2020-05-30,47.423,-120.31,South Wenatchee Avenue,WA,Wenatchee
183,183,2020-05-30,44.035,-69.536,0,ME,0
184,184,2020-05-30,39.191,-106.818,0,CO,Aspen
185,185,2020-05-30,41.14,-104.82,West 24th Street,WY,Cheyenne
186,186,2020-05-30,40.925,-98.342,West 3rd Street,NE,Grand Island
187,187,2020-05-30,59.642,-151.549,Homer Bypass Road,AK,Homer
188,188,2020-05-30,58.303,-134.421,West 11th Street,AK,Juneau
189,189,2020-05-30,36.603,-121.894,Lighthouse Avenue,CA,Monterey
190,190,2020-05-30,36.613,-121.845,The Mall,CA,Seaside
191,191,2020-05-30,32.351,-95.301,West Erwin Street,TX,Tyler
192,192,2020-05-30,42.99100000000001,-71.45,Hanover Street,NH,Manchester
193,193,2020-05-30,43.619,-116.2,North 8th Street,ID,Boise
194,194,2020-05-30,40.015,-105.27,Arapahoe Avenue,CO,Boulder
195,195,2020-05-30,40.893,-73.973,0,NJ,Englewood
196,196,2020-05-30,40.26,-74.274,South Street,NJ,Freehold Borough
197,197,2020-05-30,39.892,-75.038,0,NJ,Haddonfield
198,198,2020-05-30,40.718,-74.041,Marin Boulevard,NJ,Jersey City
199,199,2020-05-30,45.325,-118.088,0,OR,La Grande
200,200,2020-05-30,40.304,-73.992,Broadway,NJ,Long Branch
201,201,2020-05-30,40.917,-74.172,Washington Street,NJ,Paterson
202,202,2020-05-30,44.076,-103.228,South Street,SD,Rapid City
203,203,2020-05-30,40.118,-102.717,0,CO,0
204,204,2020-05-30,37.906,-122.065,0,CA,Walnut Creek
205,205,2020-05-30,48.76,-122.488,Broadway,WA,Bellingham
206,206,2020-05-30,39.708,-91.358,Church Street,MO,Hannibal
207,207,2020-05-30,41.767,-72.676,Asylum Street,CT,Hartford
208,208,2020-05-30,41.661,-91.53,South Gilbert Street,IA,Iowa City
209,209,2020-05-30,46.54600000000001,-87.40700000000002,West Bluff Street,MI,Marquette
210,210,2020-05-30,47.036,-122.905,Sid Snyder Avenue Southwest,WA,Olympia
211,211,2020-05-30,46.286,-119.284,Farrell Lane,WA,Tri-Cities
212,212,2020-05-30,36.154,-95.993,West 2nd Street,OK,Tulsa
213,213,2020-05-30,34.367,-89.51899999999998,0,MS,Oxford
214,214,2020-05-30,42.592,-72.31,0,MA,Orange
215,215,2020-05-30,36.1,-80.244,East 5th Street,NC,Winston-Salem
216,216,2020-05-30,45.633,-122.6,North Andresen Road,WA,Vancouver
217,217,2020-05-30,32.645,-85.37799999999999,0,AL,Opelika
218,218,2020-05-30,44.262,-88.415,West College Avenue,WI,Appleton
219,219,2020-05-30,46.602,-120.505,East Yakima Avenue,WA,Yakima
220,220,2020-05-30,38.933,-119.984,0,CA,South Lake Tahoe
221,221,2020-05-30,34.035,-117.042,0,CA,Yucaipa
222,222,2020-05-30,34.639,-120.458,0,CA,Lompoc
223,223,2020-05-30,34.171,-118.838,North Skyline Drive,CA,Thousand Oaks
224,224,2020-05-30,34.195,-119.178,West 7th Street,CA,Oxnard
225,225,2020-05-30,34.106,-117.596,Foothill Boulevard,CA,Rancho Cucamonga
226,226,2020-05-30,39.402,-107.211,0,CO,0
227,227,2020-05-30,37.681,-92.664,0,MO,Lebanon
228,228,2020-05-30,41.409,-75.665,Oakford Court,PA,Scranton
229,229,2020-05-30,42.911,-72.104,0,NH,0
230,230,2020-05-30,40.699,-99.081,East 24th Street,NE,Kearney
231,231,2020-05-30,37.275,-107.88,0,CO,Durango
232,232,2020-05-30,33.471,-81.975,Walton Way,GA,Augusta
233,233,2020-05-30,34.165,-84.802,0,GA,Cartersville
234,234,2020-05-30,26.622,-81.84100000000002,Ironbridge Boulevard,FL,Fort Myers
235,235,2020-05-30,34.729,-86.585,Gates Avenue Southwest,AL,Huntsville
236,236,2020-05-30,35.615,-88.814,East Lafayette Street,TN,Jackson
237,237,2020-05-30,26.617,-80.072,0,FL,Lake Worth Beach
238,238,2020-05-30,30.159,-85.66,0,FL,Panama City
239,239,2020-05-30,27.767,-82.641,4th Avenue South,FL,St. Petersburg
240,240,2020-05-30,30.833,-83.28,North Patterson Street,GA,Valdosta
241,241,2020-05-30,41.562,-72.65100000000002,Main Street,CT,Middletown
242,242,2020-05-30,30.188,-82.639,0,FL,Lake City
243,243,2020-05-30,29.895,-81.314,0,FL,St. Augustine
244,244,2020-05-30,36.99,-86.444,East 12th Avenue,KY,Bowling Green
245,245,2020-05-30,30.004,-91.819,0,LA,New Iberia
246,246,2020-05-30,32.421,-104.229,North Canal Street,NM,Carlsbad
247,247,2020-05-30,36.407,-105.573,0,NM,Taos
248,248,2020-05-30,40.37,-80.634,0,OH,Steubenville
249,249,2020-05-30,32.449,-99.733,South Pine Street,TX,Abilene
250,250,2020-05-30,32.725,-97.321,South Freeway,TX,Fort Worth
251,251,2020-05-30,38.303,-77.461,0,VA,Fredericksburg
252,252,2020-05-30,41.31100000000001,-105.594,East Grand Avenue,WY,Laramie
253,253,2020-05-30,46.872,-113.994,East Broadway Street,MT,Missoula
254,254,2020-05-30,48.117,-122.76,0,WA,Port Townsend
255,255,2020-05-30,48.118,-123.431,0,WA,Port Angeles
256,256,2020-05-30,46.13800000000001,-122.938,0,WA,Longview
257,257,2020-05-30,38.041,-84.50399999999998,Avenue of Champions,KY,Lexington
258,258,2020-05-30,41.246,-75.881,Public Square,PA,Wilkes-Barre
259,259,2020-05-30,38.15,-79.07300000000002,0,VA,City of Staunton
260,260,2020-05-30,33.381,-84.8,0,GA,Newnan
261,261,2020-05-30,34.101,-84.52,0,GA,Woodstock
262,262,2020-05-30,43.98,-124.101,0,OR,Florence
263,263,2020-05-30,46.996,-120.548,0,WA,Ellensburg
264,264,2020-05-30,47.932,-122.096,0,WA,Snohomish
265,265,2020-05-30,47.606,-122.333,Madison Street,WA,Seattle
266,266,2020-05-30,33.493,-117.148,3rd Street,CA,Temecula
267,267,2020-05-30,41.583,-87.5,0,IN,Hammond
268,268,2020-05-30,42.433,-82.92399999999998,0,MI,Harper Woods
269,269,2020-05-30,40.19300000000001,-85.38600000000002,South Walnut Street,IN,Muncie
270,270,2020-05-30,39.936,-91.41,North 4th Street,IL,Quincy
271,271,2020-05-30,40.284,-84.156,0,OH,Sidney
272,272,2020-05-30,39.048,-95.678,Southwest 10th Avenue,KS,Topeka
273,273,2020-05-30,40.626,-75.37,East Goepp Street,PA,Bethlehem
274,274,2020-05-30,29.428,-98.488,Broadway,TX,San Antonio
275,275,2020-05-30,32.693000000000005,-114.628,West 19th Street,AZ,Yuma
276,276,2020-05-30,33.425,-94.048,Texas Boulevard,TX,Texarkana
277,277,2020-05-30,33.661,-95.555,0,TX,Paris
278,278,2020-05-30,33.986,-117.353,Lyman Street,CA,Riverside
279,279,2020-05-30,34.226,-77.945,South 3rd Street,NC,Wilmington
280,280,2020-05-30,36.847,-76.285,East City Hall Avenue,VA,Norfolk
281,281,2020-05-30,37.104,-113.584,South Main Street,UT,St. George
282,282,2020-05-30,37.208,-93.29,South Jefferson Avenue,MO,Springfield
283,283,2020-05-30,37.24,-96.996,0,KS,Winfield
284,284,2020-05-30,39.445,-83.829,0,OH,Wilmington
285,285,2020-05-30,40.221,-74.759,East State Street,NJ,Trenton
286,286,2020-05-30,40.694,-89.589,Northeast Jefferson Avenue,IL,Peoria
287,287,2020-05-30,41.243,-82.616,0,OH,Norwalk
288,288,2020-05-30,41.654,-74.691,0,NY,0
289,289,2020-05-30,42.03100000000001,-97.426,South 13th Street,NE,Norfolk
290,290,2020-05-30,42.493,-92.343,Washington Street,IA,Waterloo
291,291,2020-05-30,42.588,-72.59899999999998,Main Street,MA,Greenfield
292,292,2020-05-30,44.951,-93.095,East 10th Street,MN,St. Paul
293,293,2020-05-30,41.898,-84.037,0,MI,Adrian
294,294,2020-05-30,33.56,-81.72,0,SC,Aiken
295,295,2020-05-30,31.579,-84.156,North Jefferson Street,GA,Albany
296,296,2020-05-30,35.35,-80.2,0,NC,Albemarle
297,297,2020-05-30,40.608,-75.49,Tilghman Street,PA,Allentown
298,298,2020-05-30,42.03100000000001,-93.632,6th Street,IA,Ames
299,299,2020-05-30,42.367,-72.518,0,MA,Amherst
300,300,2020-05-30,48.51300000000001,-122.613,0,WA,Anacortes
301,301,2020-05-30,40.105,-85.68,0,IN,Anderson
302,302,2020-05-30,42.28,-83.74600000000002,South Fifth Avenue,MI,Ann Arbor
303,303,2020-05-30,38.979,-76.491,State Circle,MD,Annapolis
304,304,2020-05-30,46.592,-90.884,0,WI,Ashland
305,305,2020-05-30,39.563,-95.122,0,KS,Atchison
306,306,2020-05-30,39.329,-82.101,0,OH,Athens
307,307,2020-05-30,41.505,-73.97,0,NY,Beacon
308,308,2020-05-30,38.52,-89.98700000000002,0,IL,Belleville
309,309,2020-05-30,47.474,-94.88,0,MN,Bemidji
310,310,2020-05-30,44.058,-121.315,Northwest Franklin Avenue,OR,Bend
311,311,2020-05-30,45.783,-108.501,Montana Avenue,MT,Billings
312,312,2020-05-30,30.396,-88.885,Howard Avenue,MS,Biloxi
313,313,2020-05-30,46.809,-100.783,North 6th Street,ND,Bismarck
314,314,2020-05-30,40.484,-88.994,North Main Street,IL,Bloomington
315,315,2020-05-30,41.142,-87.861,0,IL,Bradley
316,316,2020-05-30,36.644,-93.219,0,MO,Branson
317,317,2020-05-30,40.781,-73.24600000000002,0,NY,0
318,318,2020-05-30,41.99,-70.975,0,MA,Bridgewater
319,319,2020-05-30,40.201,-77.189,0,PA,Carlisle
320,320,2020-05-30,42.92,-75.84899999999998,0,NY,0
321,321,2020-05-30,38.536,-89.10600000000002,0,IL,Centralia
322,322,2020-05-30,40.116,-88.244,0,IL,Champaign
323,323,2020-05-30,38.349,-81.632,Lee Street East,WV,Charleston
324,324,2020-05-30,38.029,-78.477,0,VA,Charlottesville
325,325,2020-05-30,39.333,-82.98200000000001,South Paint Street,OH,Chillicothe
326,326,2020-05-30,38.642,-90.323,0,MO,Clayton
327,327,2020-05-30,31.124,-97.903,0,TX,Copperas Cove
328,328,2020-05-30,27.801,-97.396,I 37,TX,Corpus Christi
329,329,2020-05-30,44.565,-123.262,Northwest 4th Street,OR,Corvallis
330,330,2020-05-30,39.84,-88.955,0,IL,Decatur
331,331,2020-05-30,41.929,-88.75,0,IL,DeKalb
332,332,2020-05-30,38.011,-89.236,0,IL,0
333,333,2020-05-30,46.787,-92.098,East Superior Street,MN,Duluth
334,334,2020-05-30,40.636,-80.531,0,OH,East Liverpool
335,335,2020-05-30,33.208,-92.666,0,AR,El Dorado
336,336,2020-05-30,37.694,-85.859,Dixie Highway West,KY,Elizabethtown
337,337,2020-05-30,40.371,-105.548,0,CO,Estes Park
338,338,2020-05-30,39.485,-80.143,0,WV,Fairmont
339,339,2020-05-30,36.728,-108.219,0,NM,Farmington
340,340,2020-05-30,36.063,-94.157,County Avenue,AR,Fayetteville
341,341,2020-05-30,38.053,-81.104,0,WV,0
342,342,2020-05-30,33.886,-117.929,Sunnycrest Drive,CA,Fullerton
343,343,2020-05-30,29.652,-82.32700000000001,West University Avenue,FL,City of Gainesville Municipal Boundaries
344,344,2020-05-30,40.948,-90.371,0,IL,Galesburg
345,345,2020-05-30,29.301,-94.798,Winnie Street - Avenue G,TX,Galveston
346,346,2020-05-30,41.582,-85.834,0,IN,Goshen
347,347,2020-05-30,44.519,-88.02,North Broadway,WI,Green Bay
348,348,2020-05-30,37.03,-76.345,0,VA,Hampton
349,349,2020-05-30,43.702,-72.29,0,NH,Hanover
350,350,2020-05-30,45.705,-121.521,0,OR,Hood River
351,351,2020-05-30,38.419,-82.445,8th Street,WV,Huntington
352,352,2020-05-30,41.653,-70.283,0,MA,Barnstable
353,353,2020-05-30,32.299,-90.186,East Pearl Street,MS,Jackson
354,354,2020-05-30,38.391,-86.931,0,IN,Jasper
355,355,2020-05-30,38.278,-85.73700000000002,0,IN,Jeffersonville
356,356,2020-05-30,36.313,-82.353,Ashe Street,TN,Johnson City
357,357,2020-05-30,20.889,-156.47299999999996,0,HI,Kahului
358,358,2020-05-30,19.642,-155.997,Kuakini Highway,HI,Kailua-Kona
359,359,2020-05-30,42.29,-85.586,West South Street,MI,Kalamazoo
360,360,2020-05-30,21.334,-158.078,Manawai Street,HI,Kapolei
361,361,2020-05-30,42.933,-72.28,Federal Street,NH,Keene
362,362,2020-05-30,41.154,-81.358,0,OH,Kent
363,363,2020-05-30,31.117,-97.728,East Veterans Memorial Boulevard,TX,Killeen
364,364,2020-05-30,43.801,-91.24,West Avenue South,WI,La Crosse
365,365,2020-05-30,30.224,-92.02,West Vermilion Street,LA,Lafayette
366,366,2020-05-30,40.038,-76.305,East King Street,PA,Lancaster
367,367,2020-05-30,32.319,-106.77,Avenida Encantada,NM,Las Cruces
368,368,2020-05-30,36.901,-82.08,0,VA,Lebanon
369,369,2020-05-30,40.743,-84.105,0,OH,Lima
370,370,2020-05-30,46.13800000000001,-122.936,0,WA,Longview
371,371,2020-05-30,42.633,-71.316,Hale Street,MA,Lowell
372,372,2020-05-30,37.414,-79.142,Main Street,VA,Lynchburg
373,373,2020-05-30,39.183,-96.571,Osage Street,KS,Manhattan
374,374,2020-05-30,44.089,-87.65799999999999,0,WI,Manitowoc
375,375,2020-05-30,40.758,-82.515,South Park Street,OH,Mansfield
376,376,2020-05-30,40.558,-85.65899999999998,0,IN,Marion
377,377,2020-05-30,40.589,-83.12899999999998,0,OH,Marion
378,378,2020-05-30,29.899,-90.1,0,LA,0
379,379,2020-05-30,37.303,-120.484,M Street,CA,Merced
380,380,2020-05-30,39.402,-75.039,0,NJ,Millville
381,381,2020-05-30,37.643,-120.992,H Street,CA,Modesto
382,382,2020-05-30,44.26300000000001,-72.581,State Street,VT,Montpelier
383,383,2020-05-30,41.636,-70.934,Cottage Street,MA,New Bedford
384,384,2020-05-30,40.486,-74.452,Livingston Avenue,NJ,New Brunswick
385,385,2020-05-30,41.74800000000001,-74.087,0,NY,0
386,386,2020-05-30,40.731,-73.796,174th Street,NY,New York
387,387,2020-05-30,42.813,-70.877,Merrimac Street,MA,Newburyport
388,388,2020-05-30,48.293,-122.643,0,WA,Oak Harbor
389,389,2020-05-30,37.774,-87.113,0,KY,Owensboro
390,390,2020-05-30,30.177,-85.805,0,FL,Panama City Beach
391,391,2020-05-30,31.423,-103.493,0,TX,Pecos
392,392,2020-05-30,31.347,-89.26,0,MS,Petal
393,393,2020-05-30,40.092,-74.048,0,NJ,Point Pleasant Beach
394,394,2020-05-30,42.971,-82.425,0,MI,Port Huron
395,395,2020-05-30,36.067,-119.018,North D Street,CA,Porterville
396,396,2020-05-30,34.609,-112.316,0,AZ,Prescott Valley
397,397,2020-05-30,46.681,-68.016,0,ME,Presque Isle
398,398,2020-05-30,38.254,-104.611,Box Elder Street,CO,Pueblo
399,399,2020-05-30,44.562,-92.534,0,MN,Red Wing
400,400,2020-05-30,43.419,-83.95100000000002,South Washington Avenue,MI,City of Saginaw
401,401,2020-05-30,38.704,-93.229,West Broadway Boulevard,MO,Sedalia
402,402,2020-05-30,35.327,-96.925,0,OK,Shawnee
403,403,2020-05-30,31.541,-110.272,0,AZ,Sierra Vista
404,404,2020-05-30,47.529,-121.826,0,WA,Snoqualmie
405,405,2020-05-30,38.627,-90.191,Pine Street,MO,City of Saint Louis
406,406,2020-05-30,33.92,-80.34100000000002,0,SC,Sumter
407,407,2020-05-30,42.004,-83.945,0,MI,0
408,408,2020-05-30,31.098000000000006,-97.343,0,TX,Temple
409,409,2020-05-30,34.258,-88.705,North Spring Street,MS,Tupelo
410,410,2020-05-30,47.45,-122.459,0,WA,Vashon
411,411,2020-05-30,21.279,-157.829,Kalākaua Avenue,HI,Honolulu
412,412,2020-05-30,38.89,-77.009,Cannon House Tunnel,DC,Washington
413,413,2020-05-30,41.377,-71.824,0,RI,Westerly
414,414,2020-05-30,40.028,-74.869,0,NJ,Willingboro
415,415,2020-05-30,45.122,-95.043,0,MN,Willmar
416,416,2020-05-30,42.26300000000001,-71.80199999999998,Front Street,MA,Worcester
417,417,2020-05-30,39.804,-83.89299999999999,0,OH,0
418,418,2020-05-30,39.94,-82.01299999999998,0,OH,Zanesville
419,419,2020-05-30,41.974,-91.677,2nd Avenue Southwest,IA,Cedar Rapids
420,420,2020-05-30,29.596,-90.72,0,LA,Houma
421,421,2020-05-30,37.084,-94.514,West 7th Street,MO,Joplin
422,422,2020-05-30,41.916,-83.398,0,MI,Monroe
423,423,2020-05-30,35.108000000000004,-77.044,0,NC,New Bern
424,424,2020-05-30,44.022,-92.47,1st Street Southwest,MN,Rochester
425,425,2020-05-30,32.084,-81.1,North Fahm Street,GA,Savannah
426,426,2020-05-30,34.989000000000004,-90.01299999999998,Yorktown Drive,MS,Southaven
427,427,2020-05-30,38.668,-90.333,0,MO,University City
428,428,2020-05-30,42.354,-85.863,0,MI,0
429,429,2020-05-30,30.628,-96.334,University Drive East,TX,College Station
430,430,2020-05-30,39.728,-121.837,East 6th Street,CA,Chico
431,431,2020-05-30,47.925,-97.033,1st Avenue North,ND,Grand Forks
432,432,2020-05-30,33.215,-97.133,West Oak Street,TX,Denton
433,433,2020-05-30,42.788,-86.109,0,MI,Holland
434,434,2020-05-30,32.449,-99.733,South Pine Street,TX,Abilene
435,435,2020-05-30,42.416,-71.156,0,MA,Arlington
436,436,2020-05-30,40.797,-74.482,North Park Place,NJ,Morristown
437,437,2020-05-30,42.467,-70.949,Essex Street,MA,Lynn
438,438,2020-05-30,42.614,-70.663,Dale Avenue,MA,Gloucester
439,439,2020-05-30,42.276,-77.75399999999998,0,NY,0
440,440,2020-05-30,39.702,-75.11,0,NJ,Glassboro
441,441,2020-05-30,39.733,-75.132,0,NJ,0
442,442,2020-05-30,39.364,-74.423,South Virginia Avenue,NJ,Atlantic City
443,443,2020-05-30,40.608,-74.278,0,NJ,Rahway
444,444,2020-05-30,40.622,-74.244,0,NJ,Linden
445,445,2020-05-30,40.174,-80.24600000000002,0,PA,Washington
446,446,2020-05-30,35.783,-80.887,East Front Street,NC,Statesville
447,447,2020-05-30,33.93,-84.37299999999998,Vernon Woods Drive Northeast,GA,Atlanta
448,448,2020-05-30,32.613,-83.624,Sunset Drive,GA,Warner Robins
449,449,2020-05-30,26.71,-80.064,Clearwater Place,FL,West Palm Beach
450,450,2020-05-30,37.328,-87.499,0,KY,Madisonville
451,451,2020-05-30,36.33,-119.292,East Main Street,CA,Visalia
452,452,2020-05-30,34.853,-82.39399999999998,North Church Street,SC,Greenville
453,453,2020-05-30,40.486,-86.134,0,IN,Kokomo
454,454,2020-05-30,42.871,-71.952,0,NH,0
455,455,2020-05-30,34.389,-118.548,Wiley Canyon Road,CA,Santa Clarita
456,456,2020-05-30,40.606,-74.135,Westwood Avenue,NY,New York
457,457,2020-05-30,40.038,-76.305,East King Street,PA,Lancaster
458,458,2020-05-30,33.578,-101.855,19th Street,TX,Lubbock
459,459,2020-05-30,43.367,-124.218,0,OR,Coos Bay
460,460,2020-05-30,34.538000000000004,-117.291,E Street,CA,Victorville
461,461,2020-05-30,33.689,-78.887,North Kings Highway,SC,Myrtle Beach
462,462,2020-05-30,37.809,-85.46700000000001,0,KY,Bardstown
463,463,2020-05-30,38.624,-90.151,0,IL,East Saint Louis
464,464,2020-05-30,43.07,-76.215,0,NY,Town of Geddes
465,465,2020-05-30,29.532,-95.528,0,TX,Missouri City
466,466,2020-05-30,42.386,-82.912,0,MI,0
467,467,2020-05-30,32.431999999999995,-80.67,0,SC,Beaufort
468,468,2020-05-31,35.084,-106.651,3rd Street Southwest,NM,Albuquerque
469,469,2020-05-31,35.222,-101.831,East Amarillo Boulevard,TX,Amarillo
470,470,2020-05-31,30.447,-91.189,North Boulevard,LA,Baton Rouge
471,471,2020-05-31,38.063,-122.156,0,CA,Benicia
472,472,2020-05-31,32.777,-79.931,Meeting Street,SC,Charleston
473,473,2020-05-31,30.312,-95.456,0,TX,Conroe
474,474,2020-05-31,34.014,-86.006,0,AL,Gadsden
475,475,2020-05-31,35.385,-77.993,0,NC,Goldsboro
476,476,2020-05-31,21.307,-157.858,Hotel Street Mall,HI,Honolulu
477,477,2020-05-31,33.685,-117.827,Alton Parkway,CA,Irvine
478,478,2020-05-31,34.754,-77.43,Marine Boulevard,NC,Jacksonville
479,479,2020-05-31,21.402,-157.74,Mookua Street,HI,Kailua
480,480,2020-05-31,20.874,-156.67700000000005,0,HI,Lahaina
481,481,2020-05-31,35.756,-83.97,0,TN,Maryville
482,482,2020-05-31,31.997,-102.078,South Big Spring Street,TX,Midland
483,483,2020-05-31,37.386,-122.084,West El Camino Real,CA,Mountain View
484,484,2020-05-31,33.689,-78.887,North Kings Highway,SC,Myrtle Beach
485,485,2020-05-31,37.442,-122.145,Byron Street,CA,Palo Alto
486,486,2020-05-31,33.889,-118.16,0,CA,Paramount
487,487,2020-05-31,33.758,-118.364,0,CA,Rancho Palos Verdes
488,488,2020-05-31,33.427,-117.612,South El Camino Real,CA,San Clemente
489,489,2020-05-31,32.525,-93.75,Clyde Fant Memorial Parkway,LA,Shreveport
490,490,2020-05-31,33.21,-87.569,University Boulevard,AL,Tuscaloosa
491,491,2020-05-31,44.565,-123.262,Northwest 4th Street,OR,Corvallis
492,492,2020-05-31,40.124,-87.63,0,IL,Danville
493,493,2020-05-31,41.553,-70.609,0,MA,Falmouth
494,494,2020-05-31,39.417,-76.458,0,MD,Perry Hall
495,495,2020-05-31,42.225,-121.782,0,OR,Klamath Falls
496,496,2020-05-31,40.486,-86.134,0,IN,Kokomo
497,497,2020-05-31,39.116,-77.564,0,VA,Leesburg
498,498,2020-05-31,38.041,-84.50399999999998,Avenue of Champions,KY,Lexington
499,499,2020-05-31,38.254,-85.759,West Jefferson Street,KY,Louisville
500,500,2020-05-31,38.751,-77.475,0,VA,Manassas
501,501,2020-05-31,41.018,-76.85300000000002,0,PA,Milton
502,502,2020-05-31,40.69,-73.986,Livingston Street,NY,New York
503,503,2020-05-31,40.736,-74.173,Library Court,NJ,Newark
504,504,2020-05-31,41.223,-111.974,24th Street,UT,Ogden
505,505,2020-05-31,41.257,-95.934,Farnam Street,NE,Omaha
506,506,2020-05-31,37.083,-88.6,South 7th Street,KY,Paducah
507,507,2020-05-31,44.076,-103.228,South Street,SD,Rapid City
508,508,2020-05-31,39.907,-75.27199999999998,0,PA,0
509,509,2020-05-31,39.467,-87.414,North 3rd Street,IN,Terre Haute
510,510,2020-05-31,47.423,-120.31,South Wenatchee Avenue,WA,Wenatchee
511,511,2020-05-31,41.1,-80.65,West Federal Street,OH,Youngstown
512,512,2020-05-31,37.569,-84.296,0,KY,Berea
513,513,2020-05-31,26.622,-81.84100000000002,Ironbridge Boulevard,FL,Fort Myers
514,514,2020-05-31,39.414,-77.41,East Patrick Street,MD,Frederick
515,515,2020-05-31,34.298,-83.824,0,GA,Gainesville
516,516,2020-05-31,39.643,-77.72,North Potomac Street,MD,Hagerstown
517,517,2020-05-31,44.67,-74.98100000000002,0,NY,0
518,518,2020-05-31,43.048,-76.14699999999998,South State Street,NY,Syracuse
519,519,2020-05-31,39.401,-76.602,York Road,MD,Towson
520,520,2020-05-31,39.191,-106.818,0,CO,Aspen
521,521,2020-05-31,45.68,-111.038,West Main Street,MT,Bozeman
522,522,2020-05-31,37.677,-113.062,0,UT,Cedar City
523,523,2020-05-31,40.925,-98.342,West 3rd Street,NE,Grand Island
524,524,2020-05-31,59.642,-151.549,Homer Bypass Road,AK,Homer
525,525,2020-05-31,46.872,-113.994,East Broadway Street,MT,Missoula
526,526,2020-05-31,36.974,-122.03,Church Street,CA,Santa Cruz
527,527,2020-05-31,41.869,-103.667,Avenue C,NE,Scottsbluff
528,528,2020-05-31,32.351,-95.301,West Erwin Street,TX,Tyler
529,529,2020-05-31,39.15,-123.208,0,CA,Ukiah
530,530,2020-05-31,36.909,-121.758,0,CA,Watsonville
531,531,2020-05-31,39.41,-123.356,0,CA,Willits
532,532,2020-05-31,38.678,-121.774,0,CA,Woodland
533,533,2020-05-31,36.737,-119.786,Tulare Street,CA,Fresno
534,534,2020-05-31,27.499,-82.575,1st Avenue West,FL,Bradenton
535,535,2020-05-31,48.55,-109.684,0,MT,Havre
536,536,2020-05-31,40.718,-74.041,Marin Boulevard,NJ,Jersey City
537,537,2020-05-31,40.699,-99.081,East 24th Street,NE,Kearney
538,538,2020-05-31,40.558,-85.65899999999998,0,IN,Marion
539,539,2020-05-31,38.297,-122.287,Randolph Street,CA,Napa
540,540,2020-05-31,41.45399999999999,-70.562,0,MA,Oak Bluffs
541,541,2020-05-31,38.246,-122.631,Margo Lane,CA,Petaluma
542,542,2020-05-31,38.441,-122.721,8th Street,CA,Santa Rosa
543,543,2020-05-31,27.336,-82.531,Washington Boulevard,FL,Sarasota
544,544,2020-05-31,41.053,-73.539,Edith Sherman Drive,CT,Stamford
545,545,2020-05-31,42.194,-122.709,0,OR,Ashland
546,546,2020-05-31,28.041,-81.948,East Lime Street,FL,Lakeland
547,547,2020-05-31,44.3,-120.834,0,OR,Prineville
548,548,2020-05-31,40.608,-74.278,0,NJ,Rahway
549,549,2020-05-31,41.558,-73.05199999999998,West Main Street,CT,Waterbury
550,550,2020-05-31,34.581,-118.125,East Avenue Q 7,CA,Palmdale
551,551,2020-05-31,44.802,-68.771,Hammond Street,ME,Bangor
552,552,2020-05-31,37.305,-89.51899999999998,Themis Street,MO,Cape Girardeau
553,553,2020-05-31,38.952,-92.334,North Providence Road,MO,Columbia
554,554,2020-05-31,43.979,-71.12,0,NH,Conway
555,555,2020-05-31,38.404,-96.182,West 5th Avenue,KS,Emporia
556,556,2020-05-31,38.879,-99.327,0,KS,Hays
557,557,2020-05-31,38.972,-95.236,Massachusetts Street,KS,Lawrence
558,558,2020-05-31,46.54600000000001,-87.40700000000002,West Bluff Street,MI,Marquette
559,559,2020-05-31,42.694,-72.456,0,MA,Northfield
560,560,2020-05-31,46.239,-119.109,West Marie Street,WA,Tri-Cities
561,561,2020-05-31,39.767,-94.848,North 10th Street,MO,St. Joseph
562,562,2020-05-31,38.84,-97.611,West Iron Avenue,KS,Salina
563,563,2020-05-31,39.048,-95.678,Southwest 10th Avenue,KS,Topeka
564,564,2020-05-31,46.602,-120.505,East Yakima Avenue,WA,Yakima
565,565,2020-05-31,31.347,-89.26,0,MS,Petal
566,566,2020-05-31,40.752,-80.319,0,PA,0
567,567,2020-05-31,44.938,-123.03,State Street,OR,Salem
568,568,2020-05-31,43.618,-116.2,West Jefferson Street,ID,Boise
569,569,2020-05-31,43.234,-86.24799999999998,0,MI,Muskegon
570,570,2020-05-31,37.974,-122.531,Via Sessi,CA,San Rafael
571,571,2020-05-31,38.933,-119.984,0,CA,South Lake Tahoe
572,572,2020-05-31,35.622,-117.67,0,CA,Ridgecrest
573,573,2020-05-31,34.21,-118.202,0,CA,La Cañada Flintridge
574,574,2020-05-31,33.979,-118.03,0,CA,Whittier
575,575,2020-05-31,33.664,-117.994,East Hartford Avenue,CA,Huntington Beach
576,576,2020-05-31,33.996,-117.669,0,CA,Chino
577,577,2020-05-31,34.056,-117.185,0,CA,Redlands
578,578,2020-05-31,34.538000000000004,-117.291,E Street,CA,Victorville
579,579,2020-05-31,33.037,-117.292,0,CA,Encinitas
580,580,2020-05-31,35.769,-119.247,0,CA,Delano
581,581,2020-05-31,37.669,-122.082,Francisco Street,CA,Hayward
582,582,2020-05-31,39.262,-121.017,0,CA,0
583,583,2020-05-31,36.678,-121.656,North Main Street,CA,Salinas
584,584,2020-05-31,33.834,-118.342,El Dorado Street,CA,Torrance
585,585,2020-05-31,40.704,-105.009,0,CO,0
586,586,2020-05-31,37.674,-82.277,0,WV,Williamson
587,587,2020-05-31,42.878,-73.197,0,VT,Bennington
588,588,2020-05-31,35.615,-88.814,East Lafayette Street,TN,Jackson
589,589,2020-05-31,36.302,-88.32700000000001,0,TN,Paris
590,590,2020-05-31,33.492,-80.85600000000002,0,SC,Orangeburg
591,591,2020-05-31,34.95,-81.932,Dunbar Street,SC,Spartanburg
592,592,2020-05-31,43.667,-92.975,0,MN,Austin
593,593,2020-05-31,47.90600000000001,-96.998,0,MN,East Grand Forks
594,594,2020-05-31,40.146,-74.712,Farnsworth Avenue,NJ,Bordentown City
595,595,2020-05-31,41.64100000000001,-80.15100000000002,0,PA,Meadville
596,596,2020-05-31,41.233,-80.449,0,PA,Hermitage
597,597,2020-05-31,42.85,-77.012,0,NY,0
598,598,2020-05-31,44.256,-73.792,0,NY,0
599,599,2020-05-31,41.137,-95.891,0,NE,Bellevue
600,600,2020-05-31,44.486,-71.194,Mt. Jasper Trail,NH,Berlin
601,601,2020-05-31,43.039,-76.07300000000002,0,NY,Dewitt
602,602,2020-05-31,35.94,-77.79899999999998,0,NC,Rocky Mount
603,603,2020-05-31,40.779,-73.494,0,NY,0
604,604,2020-05-31,29.138,-80.99600000000002,0,FL,0
605,605,2020-05-31,27.198,-80.253,0,FL,Stuart
606,606,2020-05-31,20.925,-156.69,0,HI,Kaanapali
607,607,2020-05-31,19.64,-155.999,Aliʻi Drive,HI,Kailua-Kona
608,608,2020-05-31,20.85,-156.638,0,HI,0
609,609,2020-05-31,41.974,-91.677,2nd Avenue Southwest,IA,Cedar Rapids
610,610,2020-05-31,37.84,-94.708,0,KS,Fort Scott
611,611,2020-05-31,37.99,-84.18,0,KY,Winchester
612,612,2020-05-31,43.914,-69.965,0,ME,Brunswick
613,613,2020-05-31,40.915,-81.10600000000002,0,OH,Alliance
614,614,2020-05-31,41.449,-82.708,West Park Street,OH,Sandusky
615,615,2020-05-31,41.664,-83.555,Collingwood Boulevard,OH,Toledo
616,616,2020-05-31,32.449,-99.733,South Pine Street,TX,Abilene
617,617,2020-05-31,27.801,-97.396,I 37,TX,Corpus Christi
618,618,2020-05-31,33.215,-97.133,West Oak Street,TX,Denton
619,619,2020-05-31,32.501,-94.74,West Marshall Avenue,TX,Longview
620,620,2020-05-31,31.338,-94.729,East Shepherd Avenue,TX,Lufkin
621,621,2020-05-31,30.309,-104.021,0,TX,Marfa
622,622,2020-05-31,31.846,-102.368,North Grant Avenue,TX,Odessa
623,623,2020-05-31,31.464,-100.437,East Harris Avenue,TX,San Angelo
624,624,2020-05-31,33.636,-96.609,0,TX,Sherman
625,625,2020-05-31,31.549,-97.147,North 18th Street,TX,Waco
626,626,2020-05-31,41.262,-95.864,0,IA,Council Bluffs
627,627,2020-05-31,41.31100000000001,-105.594,East Grand Avenue,WY,Laramie
628,628,2020-05-31,43.475,-110.769,0,WY,Jackson
629,629,2020-05-31,41.433,-96.498,West 4th Street,NE,Fremont
630,630,2020-05-31,46.065,-118.343,South 5th Avenue,WA,Walla Walla
631,631,2020-05-31,46.732,-117.0,0,ID,Moscow
632,632,2020-05-31,47.214,-123.106,0,WA,Shelton
633,633,2020-05-31,45.633,-122.6,North Andresen Road,WA,Vancouver
634,634,2020-05-31,48.478,-120.186,0,WA,Winthrop
635,635,2020-05-31,32.841,-83.632,Spring Street,GA,Macon
636,636,2020-05-31,33.381,-84.8,0,GA,Newnan
637,637,2020-05-31,34.101,-84.52,0,GA,Woodstock
638,638,2020-05-31,43.98,-124.101,0,OR,Florence
639,639,2020-05-31,47.81100000000001,-122.377,0,WA,Edmonds
640,640,2020-05-31,47.932,-122.096,0,WA,Snohomish
641,641,2020-05-31,48.07100000000001,-122.266,0,WA,0
642,642,2020-05-31,46.188,-123.831,0,OR,Astoria
643,643,2020-05-31,33.58,-85.07700000000001,0,GA,Carrollton
644,644,2020-05-31,32.461,-84.988,8th Street,GA,Columbus
645,645,2020-05-31,34.257,-85.165,0,GA,Rome
646,646,2020-05-31,38.811,-89.95299999999997,0,IL,Edwardsville
647,647,2020-05-31,40.37,-80.634,0,OH,Steubenville
648,648,2020-05-31,47.521,-92.537,0,MN,Virginia
649,649,2020-05-31,28.709,-100.5,North Ceylon Street,TX,Eagle Pass
650,650,2020-05-31,32.61,-85.48100000000002,Mitcham Avenue,AL,Auburn
651,651,2020-05-31,32.779,-96.8,South Akard Street,TX,"Dallas, TX"
652,652,2020-05-31,33.471,-81.975,Walton Way,GA,Augusta
653,653,2020-05-31,34.454,-85.706,0,AL,Fort Payne
654,654,2020-05-31,34.606,-86.98299999999998,Lee Street Northeast,AL,Decatur
655,655,2020-05-31,34.8,-87.677,West Tennessee Street,AL,Florence
656,656,2020-05-31,35.089,-92.442,0,AR,Conway
657,657,2020-05-31,35.131,-79.431,0,NC,0
658,658,2020-05-31,35.16,-84.87700000000002,0,TN,Cleveland
659,659,2020-05-31,36.069,-79.40100000000002,0,NC,Graham
660,660,2020-05-31,36.99,-86.444,East 12th Avenue,KY,Bowling Green
661,661,2020-05-31,37.931,-121.697,0,CA,Brentwood
662,662,2020-05-31,38.21,-84.559,North Court Street,KY,Georgetown
663,663,2020-05-31,38.566,-76.077,0,MD,Cambridge
664,664,2020-05-31,38.88,-77.10600000000002,North Piedmont Street,VA,Arlington
665,665,2020-05-31,39.084,-84.509,0,KY,Covington
666,666,2020-05-31,39.496,-88.176,0,IL,Charleston
667,667,2020-05-31,39.648,-78.763,The Shops at Canal Place,MD,Cumberland
668,668,2020-05-31,39.759,-84.19200000000002,South Main Street,OH,Dayton
669,669,2020-05-31,39.961,-82.999,East Capital Street,OH,Columbus
670,670,2020-05-31,40.301,-79.539,Five Star Trail,PA,Greensburg
671,671,2020-05-31,40.586,-98.388,West 3rd Street,NE,Hastings
672,672,2020-05-31,40.688,-75.221,South 9th Street,PA,Easton
673,673,2020-05-31,40.806,-74.185,0,NJ,Bloomfield
674,674,2020-05-31,40.861,-79.895,0,PA,Butler
675,675,2020-05-31,41.18,-73.191,Golden Hill Street,CT,Bridgeport
676,676,2020-05-31,41.558,-91.182,0,IA,0
677,677,2020-05-31,41.635,-84.999,0,IN,Angola
678,678,2020-05-31,41.648,-70.348,0,MA,Barnstable
679,679,2020-05-31,42.374,-71.11,Trowbridge Street,MA,Cambridge
680,680,2020-05-31,42.508,-89.03200000000002,0,WI,City of Beloit
681,681,2020-05-31,30.674,-96.37,North Texas Avenue,TX,Bryan
682,682,2020-05-31,29.997,-98.099,0,TX,Wimberley
683,683,2020-05-31,43.00899999999999,-97.395,0,SD,0
684,684,2020-05-31,32.9,-105.96,North White Sands Boulevard,NM,Alamogordo
685,685,2020-05-31,34.174,-97.144,0,OK,Ardmore
686,686,2020-05-31,44.38800000000001,-68.204,0,ME,Bar Harbor
687,687,2020-05-31,37.778,-81.188,0,WV,Beckley
688,688,2020-05-31,44.426,-69.006,0,ME,0
689,689,2020-05-31,42.117,-86.45299999999997,0,MI,Benton Harbor
690,690,2020-05-31,42.099,-75.918,Main Street,NY,Binghamton
691,691,2020-05-31,37.268,-81.223,0,WV,Bluefield
692,692,2020-05-31,32.236999999999995,-80.86,0,SC,0
693,693,2020-05-31,42.851000000000006,-72.558,0,VT,Brattleboro
694,694,2020-05-31,37.727,-89.21700000000001,0,IL,Carbondale
695,695,2020-05-31,46.72,-122.961,0,WA,Centralia
696,696,2020-05-31,44.789,-93.602,0,MN,Chaska
697,697,2020-05-31,35.046,-85.31,West Martin Luther King Boulevard,TN,Chattanooga
698,698,2020-05-31,39.219,-76.071,0,MD,Chestertown
699,699,2020-05-31,33.992,-117.759,0,CA,Chino Hills
700,700,2020-05-31,38.805,-123.018,West 1st Street,CA,Cloverdale
701,701,2020-05-31,40.843,-73.293,0,NY,0
702,702,2020-05-31,31.124,-97.903,0,TX,Copperas Cove
703,703,2020-05-31,60.543,-145.759,0,AK,Cordova
704,704,2020-05-31,34.175,-86.844,0,AL,Cullman
705,705,2020-05-31,29.177,-80.982,0,FL,0
706,706,2020-05-31,43.303,-91.786,0,IA,Decorah
707,707,2020-05-31,26.457,-80.075,Southwest 2nd Avenue,FL,Delray Beach
708,708,2020-05-31,42.023,-95.357,0,IA,Denison
709,709,2020-05-31,46.817,-95.845,0,MN,Detroit Lakes
710,710,2020-05-31,31.223000000000006,-85.39,East Main Street,AL,Dothan
711,711,2020-05-31,42.735,-84.484,0,MI,East Lansing
712,712,2020-05-31,48.697,-122.905,0,WA,Eastsound
713,713,2020-05-31,44.81100000000001,-91.498,South Farwell Street,WI,Eau Claire
714,714,2020-05-31,39.419,-76.295,0,MD,Edgewood
715,715,2020-05-31,47.313,-122.335,0,WA,Federal Way
716,716,2020-05-31,42.46100000000001,-83.135,0,MI,Ferndale
717,717,2020-05-31,40.512,-74.859,0,NJ,Flemington
718,718,2020-05-31,35.386,-94.399,Grand Avenue,AR,Fort Smith
719,719,2020-05-31,27.674,-80.40899999999998,0,FL,Gifford
720,720,2020-05-31,40.805,-74.204,0,NJ,0
721,721,2020-05-31,31.327,-89.29,North Main Street,MS,Hattiesburg
722,722,2020-05-31,33.756,-84.39,Forsyth Street Northwest,GA,Atlanta
723,723,2020-05-31,41.081,-81.51899999999998,King James Way,OH,Akron
724,724,2020-05-31,33.671,-85.814,Thomas Avenue,AL,Anniston
725,725,2020-05-31,42.095,-87.98100000000002,0,IL,Arlington Heights
726,726,2020-05-31,35.708,-79.814,0,NC,Asheboro
727,727,2020-05-31,41.154,-87.88799999999998,0,IL,Bourbonnais
728,728,2020-05-31,36.096,-79.438,South Church Street,NC,Burlington
729,729,2020-05-31,42.041,-87.69,Dempster Street,IL,Evanston
730,730,2020-05-31,43.01300000000001,-83.68700000000003,East Court Street,MI,Flint
731,731,2020-05-31,42.963,-85.66799999999998,West Fulton Street,MI,Grand Rapids
732,732,2020-05-31,35.956,-80.005,South Main Street,NC,High Point
733,733,2020-05-31,42.168,-88.428,0,IL,0
734,734,2020-05-31,35.842,-90.704,Church Street,AR,Jonesboro
735,735,2020-05-31,41.12,-87.861,0,IL,Kankakee
736,736,2020-05-31,43.801,-91.24,West Avenue South,WI,La Crosse
737,737,2020-05-31,33.956,-83.988,0,GA,Lawrenceville
738,738,2020-05-31,33.953,-84.55,West Park Square,GA,Marietta
739,739,2020-05-31,25.765,-80.194,South Miami Avenue,FL,Miami
740,740,2020-05-31,34.745,-87.66799999999998,0,AL,Muscle Shoals
741,741,2020-05-31,39.645,-80.858,0,WV,New Martinsville
742,742,2020-05-31,30.526,-89.68,0,MS,Picayune
743,743,2020-05-31,40.336,-75.92699999999998,Court Street,PA,Reading
744,744,2020-05-31,35.278,-93.134,0,AR,Illinois Township
745,745,2020-05-31,38.366,-75.593,East Main Street,MD,Salisbury
746,746,2020-05-31,39.924,-83.809,South Limestone Street,OH,Springfield
747,747,2020-05-31,39.782,-89.648,East Myrtle Street,IL,Springfield
748,748,2020-05-31,30.837,-83.979,0,GA,Thomasville
749,749,2020-05-31,27.638,-80.398,0,FL,Vero Beach
750,750,2020-05-31,42.493,-92.343,Washington Street,IA,Waterloo
751,751,2020-05-31,37.687,-97.331,East Douglas Avenue,KS,Wichita
752,752,2020-05-31,37.271,-76.707,West Duke of Gloucester Street,VA,Williamsburg
753,753,2020-05-31,42.315,-88.449,0,IL,Woodstock
754,754,2020-05-31,36.692,-79.873,0,VA,Martinsville
755,755,2020-05-31,37.71,-76.38,0,VA,Kilmarnock
756,756,2020-05-31,39.186,-78.163,East Piccadilly Street,VA,Winchester
757,757,2020-05-31,38.713,-77.795,0,VA,Warrenton
758,758,2020-05-31,42.683,-89.01899999999998,Saint Lawrence Avenue,WI,Janesville
759,759,2020-05-31,42.585,-87.824,55th Street,WI,Kenosha
760,760,2020-05-31,44.025,-88.54299999999998,West Irving Avenue,WI,Oshkosh
761,761,2020-05-31,44.524,-89.575,0,WI,Stevens Point
762,762,2020-05-31,41.525,-88.083,Ottawa Street,IL,Joliet
763,763,2020-05-31,39.046,-76.064,0,MD,Centreville
764,764,2020-05-31,38.336,-75.084,0,MD,Ocean City
765,765,2020-05-31,42.788,-86.109,0,MI,Holland
766,766,2020-05-31,43.598,-84.76799999999999,0,MI,Mount Pleasant
767,767,2020-05-31,43.419,-83.95100000000002,South Washington Avenue,MI,City of Saginaw
768,768,2020-05-31,42.444,-76.502,0,NY,Ithaca
769,769,2020-05-31,33.02,-96.699,K Avenue,TX,Plano
770,770,2020-05-31,28.267,-80.729,0,FL,Viera
771,771,2020-05-31,42.416,-71.156,0,MA,Arlington
772,772,2020-05-31,42.276,-77.75399999999998,0,NY,0
773,773,2020-05-31,42.367,-72.518,0,MA,Amherst
774,774,2020-05-31,42.81399999999999,-73.937,Liberty Street,NY,Schenectady
775,775,2020-05-31,40.543,-74.363,0,NJ,Metuchen
776,776,2020-05-31,40.304,-73.992,Broadway,NJ,Long Branch
777,777,2020-05-31,42.058,-70.179,0,MA,0
778,778,2020-05-31,38.972,-95.236,Massachusetts Street,KS,Lawrence
779,779,2020-05-31,43.095,-75.27600000000002,Burrstone Road,NY,City of Utica
780,780,2020-05-31,42.886,-78.878,0,NY,Buffalo
781,781,2020-05-31,43.657,-70.259,Monument Square,ME,Portland
782,782,2020-05-31,44.765,-69.719,0,ME,Skowhegan
783,783,2020-05-31,43.38399999999999,-70.545,0,ME,Kennebunk
784,784,2020-05-31,44.883,-68.672,0,ME,0
785,785,2020-05-31,44.1,-70.215,Sabattus Street,ME,Lewiston
786,786,2020-05-31,44.098,-70.23100000000001,0,ME,Auburn
787,787,2020-05-31,42.26300000000001,-71.80199999999998,Front Street,MA,Worcester
788,788,2020-05-31,42.361,-71.362,0,MA,Wayland
789,789,2020-05-31,42.19600000000001,-70.726,0,MA,Scituate
790,790,2020-05-31,40.606,-74.135,Westwood Avenue,NY,New York
791,791,2020-05-31,41.767,-72.676,Asylum Street,CT,Hartford
792,792,2020-05-31,42.055,-72.77,0,MA,Southwick
793,793,2020-05-31,43.31,-73.64399999999998,0,NY,Glens Falls
794,794,2020-05-31,41.284,-73.498,0,CT,Ridgefield
795,795,2020-05-31,42.699,-73.11399999999998,0,MA,North Adams
796,796,2020-05-31,42.45,-73.245,0,MA,Pittsfield
797,797,2020-05-31,41.636,-70.934,Cottage Street,MA,New Bedford
798,798,2020-05-31,39.267,-81.562,5th Street,WV,Parkersburg
799,799,2020-05-31,36.158,-81.14699999999998,0,NC,North Wilkesboro
800,800,2020-05-31,39.485,-80.143,0,WV,Fairmont
801,801,2020-05-31,40.064,-80.721,0,WV,Wheeling
802,802,2020-05-31,33.019,-80.176,0,SC,Summerville
803,803,2020-05-31,38.641,-75.611,0,DE,0
804,804,2020-05-31,34.226,-77.945,South 3rd Street,NC,Wilmington
805,805,2020-05-31,36.847,-76.285,East City Hall Avenue,VA,Norfolk
806,806,2020-05-31,40.427,-78.389,0,PA,Hollidaysburg
807,807,2020-05-31,40.155,-74.829,Mill Creek Parkway,PA,Bristol Township
808,808,2020-05-31,40.793,-77.86,South Allen Street,PA,State College
809,809,2020-05-31,40.637,-80.24,River Avenue,PA,Aliquippa
810,810,2020-05-31,36.1,-80.244,East 5th Street,NC,Winston-Salem
811,811,2020-05-31,39.928,-75.274,0,PA,Upper Darby
812,812,2020-05-31,40.174,-80.24600000000002,0,PA,Washington
813,813,2020-05-31,41.246,-75.881,Public Square,PA,Wilkes-Barre
814,814,2020-05-31,35.783,-80.887,East Front Street,NC,Statesville
815,815,2020-05-31,38.76300000000001,-93.736,Railroad Street,MO,Warrensburg
816,816,2020-05-31,36.154,-95.993,West 2nd Street,OK,Tulsa
817,817,2020-05-31,39.329,-82.101,0,OH,Athens
818,818,2020-05-31,38.974,-92.743,0,MO,Boonville
819,819,2020-05-31,38.897,-121.077,0,CA,Auburn
820,820,2020-05-31,39.729,-104.832,Uvalda Street,CO,Aurora
821,821,2020-05-31,45.783,-108.501,Montana Avenue,MT,Billings
822,822,2020-05-31,47.567,-122.633,Warren Avenue,WA,Bremerton
823,823,2020-05-31,39.938,-77.661,0,PA,Chambersburg
824,824,2020-05-31,40.484,-88.994,North Main Street,IL,Bloomington
825,825,2020-05-31,34.142,-118.15,Mercantile Place,CA,Pasadena
826,826,2020-05-31,29.211,-81.023,Ridgewood Avenue,FL,Daytona Beach
827,827,2020-05-31,33.938,-117.231,Starcrest Drive,CA,Moreno Valley
828,828,2020-05-31,30.438,-84.28,Apalachee Parkway,FL,Tallahassee
829,829,2020-05-31,41.661,-91.53,South Gilbert Street,IA,Iowa City
830,830,2020-05-31,36.866,-87.491,0,KY,Hopkinsville
831,831,2020-05-31,40.101,-75.383,Keebler Road,PA,Upper Merion Township
832,832,2020-05-31,40.038,-76.305,East King Street,PA,Lancaster
833,833,2020-05-31,40.038,-76.305,East King Street,PA,Lancaster
834,834,2020-05-31,33.449,-112.074,South Central Avenue,AZ,Phoenix
835,835,2020-05-31,43.367,-124.218,0,OR,Coos Bay
836,836,2020-05-31,41.257,-95.934,Farnam Street,NE,Omaha
837,837,2020-05-31,41.535,-87.42399999999998,0,IN,Griffith
838,838,2020-05-31,41.575,-87.23899999999998,0,IN,Lake Station
839,839,2020-05-31,38.991,-77.02600000000002,Mayor Lane,MD,Silver Spring
840,840,2020-05-31,33.039,-85.031,0,GA,LaGrange
841,841,2020-05-31,33.531,-117.769,Carmelita Street,CA,Laguna Beach
842,842,2020-05-31,43.154,-93.202,0,IA,Mason City
843,843,2020-05-31,41.708,-86.895,0,IN,Michigan City
844,844,2020-05-31,43.455,-76.507,0,NY,Oswego
845,845,2020-05-31,40.686,-76.196,0,PA,Pottsville
846,846,2020-05-31,43.217,-123.342,0,OR,Roseburg
847,847,2020-05-31,42.611,-71.234,0,MA,Tewksbury
848,848,2020-05-31,38.354,-121.973,Aegean Way,CA,Vacaville
849,849,2020-05-31,36.296,-80.143,0,NC,0
850,850,2020-05-31,32.905,-80.667,0,SC,Walterboro
851,851,2020-05-31,36.146,-81.161,0,NC,Wilkesboro
852,852,2020-05-31,45.122,-95.043,0,MN,Willmar
853,853,2020-05-31,45.37300000000001,-84.955,0,MI,0
854,854,2020-05-31,35.781,-78.639,East Edenton Street,NC,Raleigh
855,855,2020-05-31,33.494,-111.926,East 1st Avenue,AZ,Scottsdale
856,856,2020-05-31,30.508000000000006,-97.674,Lake Creek Circle,TX,Round Rock
857,857,2020-05-31,35.292,-81.536,East Marion Street,NC,Shelby
858,858,2020-05-31,32.431999999999995,-80.67,0,SC,Beaufort
859,859,2020-06-01,37.765,-122.242,0,CA,Alameda
860,860,2020-06-01,33.837,-117.914,East Lincoln Avenue,CA,Anaheim
861,861,2020-06-01,30.447,-91.189,North Boulevard,LA,Baton Rouge
862,862,2020-06-01,38.063,-122.156,0,CA,Benicia
863,863,2020-06-01,32.777,-79.931,Meeting Street,SC,Charleston
864,864,2020-06-01,34.096,-117.72,0,CA,Claremont
865,865,2020-06-01,34.0,-81.033,Gervais Street,SC,Columbia
866,866,2020-06-01,38.249,-122.041,Texas Street,CA,Fairfield
867,867,2020-06-01,36.728,-108.219,0,NM,Farmington
868,868,2020-06-01,32.725,-97.321,South Freeway,TX,Fort Worth
869,869,2020-06-01,33.151,-96.824,5th Street,TX,Frisco
870,870,2020-06-01,20.889,-156.47299999999996,0,HI,Kahului
871,871,2020-06-01,35.96,-83.92200000000003,Cumberland Avenue,TN,Knoxville
872,872,2020-06-01,27.504,-99.507,Lincoln Street,TX,Laredo
873,873,2020-06-01,33.578,-101.855,19th Street,TX,Lubbock
874,874,2020-06-01,37.454,-122.182,0,CA,Menlo Park
875,875,2020-06-01,37.386,-122.084,West El Camino Real,CA,Mountain View
876,876,2020-06-01,35.846,-86.39,North Spring Street,TN,Murfreesboro
877,877,2020-06-01,38.297,-122.287,Randolph Street,CA,Napa
878,878,2020-06-01,33.721,-116.374,0,CA,Palm Desert
879,879,2020-06-01,37.442,-122.145,Byron Street,CA,Palo Alto
880,880,2020-06-01,35.781,-78.639,East Edenton Street,NC,Raleigh
881,881,2020-06-01,38.752,-121.289,Main Street,CA,Roseville
882,882,2020-06-01,37.334,-121.891,South Market Street,CA,San Jose
883,883,2020-06-01,32.525,-93.75,Clyde Fant Memorial Parkway,LA,Shreveport
884,884,2020-06-01,33.019,-80.176,0,SC,Summerville
885,885,2020-06-01,32.222,-110.926,East Broadway Boulevard,AZ,Tucson
886,886,2020-06-01,36.208,-119.347,0,CA,Tulare
887,887,2020-06-01,33.21,-87.569,University Boulevard,AL,Tuscaloosa
888,888,2020-06-01,28.805,-97.004,North Main Street,TX,Victoria
889,889,2020-06-01,41.417,-87.365,0,IN,Crown Point
890,890,2020-06-01,39.29,-76.612,Charles Plaza,MD,Baltimore
891,891,2020-06-01,60.792,-161.756,0,AK,Bethel
892,892,2020-06-01,47.678,-116.78,East Foster Avenue,ID,Coeur d'Alene
893,893,2020-06-01,38.834,-104.821,East Pikes Peak Avenue,CO,Colorado Springs
894,894,2020-06-01,41.081,-85.139,East Main Street,IN,Fort Wayne
895,895,2020-06-01,59.236,-135.445,0,AK,Haines
896,896,2020-06-01,38.45,-78.869,Court Square,VA,Harrisonburg
897,897,2020-06-01,57.788,-152.405,0,AK,Kodiak
898,898,2020-06-01,42.734,-84.555,West Ottawa Street,MI,Lansing
899,899,2020-06-01,38.254,-85.759,West Jefferson Street,KY,Louisville
900,900,2020-06-01,42.327,-122.876,Middleford Alley,OR,Medford
901,901,2020-06-01,41.225,-73.058,0,CT,Milford
902,902,2020-06-01,38.254,-104.611,Box Elder Street,CO,Pueblo
903,903,2020-06-01,37.539,-77.434,North 10th Street,VA,Richmond
904,904,2020-06-01,57.053,-135.33100000000002,Baranof Street,AK,Sitka
905,905,2020-06-01,47.66,-117.429,West Main Avenue,WA,Spokane
906,906,2020-06-01,39.467,-87.414,North 3rd Street,IN,Terre Haute
907,907,2020-06-01,40.11,-88.204,East High Street,IL,Urbana
908,908,2020-06-01,36.853,-75.97800000000002,25th Street,VA,Virginia Beach
909,909,2020-06-01,41.238,-80.818,North Park Avenue,OH,Warren
910,910,2020-06-01,47.423,-120.31,South Wenatchee Avenue,WA,Wenatchee
911,911,2020-06-01,37.271,-76.707,West Duke of Gloucester Street,VA,Williamsburg
912,912,2020-06-01,37.569,-84.296,0,KY,Berea
913,913,2020-06-01,34.298,-83.824,0,GA,Gainesville
914,914,2020-06-01,33.953,-84.55,West Park Square,GA,Marietta
915,915,2020-06-01,44.931,-74.893,0,NY,Massena
916,916,2020-06-01,44.035,-69.536,0,ME,0
917,917,2020-06-01,44.698,-75.492,0,NY,Ogdensburg
918,918,2020-06-01,43.048,-76.14699999999998,South State Street,NY,Syracuse
919,919,2020-06-01,40.867,-124.082,0,CA,Arcata
920,920,2020-06-01,39.55,-107.325,0,CO,Glenwood Springs
921,921,2020-06-01,40.925,-98.342,West 3rd Street,NE,Grand Island
922,922,2020-06-01,59.642,-151.549,Homer Bypass Road,AK,Homer
923,923,2020-06-01,46.872,-113.994,East Broadway Street,MT,Missoula
924,924,2020-06-01,40.178,-122.236,0,CA,Red Bluff
925,925,2020-06-01,32.351,-95.301,West Erwin Street,TX,Tyler
926,926,2020-06-01,38.678,-121.774,0,CA,Woodland
927,927,2020-06-01,35.26300000000001,-77.582,0,NC,Kinston
928,928,2020-06-01,41.505,-73.97,0,NY,Beacon
929,929,2020-06-01,40.585,-105.085,West Oak Street,CO,Fort Collins
930,930,2020-06-01,41.44600000000001,-74.423,Mill Street,NY,Middletown
931,931,2020-06-01,41.74800000000001,-74.087,0,NY,0
932,932,2020-06-01,45.672,-118.789,0,OR,Pendleton
933,933,2020-06-01,43.025,-108.38,North Federal Boulevard,WY,Riverton
934,934,2020-06-01,41.142,-73.358,0,CT,Westport
935,935,2020-06-01,43.619,-116.2,North 8th Street,ID,Boise
936,936,2020-06-01,45.84,-119.289,0,OR,Hermiston
937,937,2020-06-01,41.45399999999999,-70.604,0,MA,Tisbury
938,938,2020-06-01,40.799,-81.378,Tuscarawas Street West,OH,Canton
939,939,2020-06-01,41.482,-81.67,Rockefeller Avenue,OH,Cleveland
940,940,2020-06-01,46.996,-120.548,0,WA,Ellensburg
941,941,2020-06-01,46.54600000000001,-87.40700000000002,West Bluff Street,MI,Marquette
942,942,2020-06-01,43.038,-87.906,North Jefferson Street,WI,Milwaukee
943,943,2020-06-01,39.767,-94.848,North 10th Street,MO,St. Joseph
944,944,2020-06-01,35.283,-120.659,Monterey Street,CA,San Luis Obispo
945,945,2020-06-01,39.782,-89.648,East Myrtle Street,IL,Springfield
946,946,2020-06-01,42.606,-83.15,0,MI,Troy
947,947,2020-06-01,38.76300000000001,-93.736,Railroad Street,MO,Warrensburg
948,948,2020-06-01,46.602,-120.505,East Yakima Avenue,WA,Yakima
949,949,2020-06-01,40.808,-96.7,K Street,NE,Lincoln
950,950,2020-06-01,37.258,-120.999,0,CA,0
951,951,2020-06-01,44.938,-123.03,State Street,OR,Salem
952,952,2020-06-01,41.74800000000001,-88.166,75th Street,IL,Naperville
953,953,2020-06-01,33.163000000000004,-96.938,0,TX,Little Elm
954,954,2020-06-01,34.77,-84.97,West Cuyler Street,GA,Dalton
955,955,2020-06-01,42.5,-90.665,Iowa Street,IA,Dubuque
956,956,2020-06-01,38.811,-90.7,North Main Street,MO,O’Fallon
957,957,2020-06-01,40.033,-83.15799999999999,0,OH,Hilliard
958,958,2020-06-01,39.996,-82.67399999999998,0,OH,Pataskala
959,959,2020-06-01,44.052,-123.087,Mill Street,OR,Eugene
960,960,2020-06-01,38.58,-121.496,K Street,CA,Sacramento
961,961,2020-06-01,37.959,-121.298,North Van Buren Street,CA,Stockton
962,962,2020-06-01,35.635,-117.678,0,CA,Ridgecrest
963,963,2020-06-01,32.792,-115.563,West State Street,CA,El Centro
964,964,2020-06-01,34.228,-118.239,Alabama Street,CA,Glendale
965,965,2020-06-01,33.685,-117.827,Alton Parkway,CA,Irvine
966,966,2020-06-01,33.427,-117.612,South El Camino Real,CA,San Clemente
967,967,2020-06-01,34.898,-117.02,0,CA,Barstow
968,968,2020-06-01,33.042,-116.868,0,CA,Ramona
969,969,2020-06-01,38.897,-121.077,0,CA,Auburn
970,970,2020-06-01,33.671,-85.814,Thomas Avenue,AL,Anniston
971,971,2020-06-01,34.729,-86.585,Gates Avenue Southwest,AL,Huntsville
972,972,2020-06-01,35.842,-90.704,Church Street,AR,Jonesboro
973,973,2020-06-01,36.313,-82.353,Ashe Street,TN,Johnson City
974,974,2020-06-01,35.72,-79.17699999999998,0,NC,Pittsboro
975,975,2020-06-01,35.292,-81.536,East Marion Street,NC,Shelby
976,976,2020-06-01,41.018,-76.85300000000002,0,PA,Milton
977,977,2020-06-01,41.119,-78.762,0,PA,DuBois
978,978,2020-06-01,40.245,-75.65,0,PA,Pottstown
979,979,2020-06-01,40.987,-75.195,0,PA,Stroudsburg
980,980,2020-06-01,40.588,-73.658,0,NY,Long Beach
981,981,2020-06-01,41.096,-73.936,0,NY,0
982,982,2020-06-01,38.714,-75.07600000000002,0,DE,Rehoboth Beach
983,983,2020-06-01,26.34,-81.779,0,FL,0
984,984,2020-06-01,26.532,-80.09100000000002,Old Boynton Road,FL,Boynton Beach
985,985,2020-06-01,28.084,-80.608,Waverly Place,FL,Melbourne
986,986,2020-06-01,37.84,-94.708,0,KS,Fort Scott
987,987,2020-06-01,37.57,-85.25299999999999,0,KY,Lebanon
988,988,2020-06-01,37.328,-87.499,0,KY,Madisonville
989,989,2020-06-01,36.61,-88.315,0,KY,Murray
990,990,2020-06-01,30.475,-90.1,0,LA,Covington
991,991,2020-06-01,44.67100000000001,-70.15100000000001,0,ME,Farmington
992,992,2020-06-01,40.895,-83.889,0,OH,0
993,993,2020-06-01,39.4,-84.561,0,OH,Hamilton
994,994,2020-06-01,29.197,-96.27,0,TX,El Campo
995,995,2020-06-01,30.508000000000006,-97.679,South Mays Street,TX,Round Rock
996,996,2020-06-01,37.23,-80.414,0,VA,Blacksburg
997,997,2020-06-01,26.142,-81.794,5th Avenue South,FL,Naples
998,998,2020-06-01,33.215,-97.133,West Oak Street,TX,Denton
999,999,2020-06-01,42.833,-108.732,0,WY,Lander
1000,1000,2020-06-01,33.08,-83.23200000000001,0,GA,Milledgeville
1001,1001,2020-06-01,32.56,-83.154,0,GA,0
1002,1002,2020-06-01,31.18,-83.789,0,GA,Moultrie
1003,1003,2020-06-01,45.633,-122.6,North Andresen Road,WA,Vancouver
1004,1004,2020-06-01,44.958,-124.018,0,OR,Lincoln City
1005,1005,2020-06-01,41.85,-87.65,West Lumber Street,IL,Chicago
1006,1006,2020-06-01,40.039,-84.20299999999997,0,OH,Troy
1007,1007,2020-06-01,40.485,-78.01,0,PA,Huntingdon
1008,1008,2020-06-01,36.933,-82.62899999999998,0,VA,0
1009,1009,2020-06-01,45.705,-121.521,0,OR,Hood River
1010,1010,2020-06-01,43.198,-70.874,Central Avenue,NH,Dover
1011,1011,2020-06-01,33.394,-104.525,West 2nd Street,NM,Roswell
1012,1012,2020-06-01,32.903,-96.564,0,TX,Rowlett
1013,1013,2020-06-01,31.938,-81.303,0,GA,Richmond Hill
1014,1014,2020-06-01,33.534,-82.131,0,GA,0
1015,1015,2020-06-01,33.751999999999995,-84.74799999999998,0,GA,Douglasville
1016,1016,2020-06-01,42.078,-87.821,0,IL,Glenview
1017,1017,2020-06-01,41.878,-88.06700000000002,0,IL,Glen Ellyn
1018,1018,2020-06-01,41.333,-89.09200000000001,0,IL,LaSalle
1019,1019,2020-06-01,38.891,-90.184,0,IL,Alton
1020,1020,2020-06-01,39.978,-86.118,0,IN,Carmel
1021,1021,2020-06-01,39.956,-86.014,0,IN,Fishers
1022,1022,2020-06-01,38.959,-85.89,0,IN,Seymour
1023,1023,2020-06-01,37.975,-87.556,East Sycamore Street,IN,Evansville
1024,1024,2020-06-01,42.049,-92.908,0,IA,Marshalltown
1025,1025,2020-06-01,41.425,-91.044,0,IA,Muscatine
1026,1026,2020-06-01,37.479,-82.51899999999998,0,KY,0
1027,1027,2020-06-01,29.955,-90.075,South Saratoga Street,LA,New Orleans
1028,1028,2020-06-01,30.505,-90.463,0,LA,Hammond
1029,1029,2020-06-01,44.1,-70.215,Sabattus Street,ME,Lewiston
1030,1030,2020-06-01,46.864,-67.998,Limestone Street,ME,Caribou
1031,1031,2020-06-01,44.802,-68.771,Hammond Street,ME,Bangor
1032,1032,2020-06-01,43.911,-69.821,0,ME,0
1033,1033,2020-06-01,38.549,-76.589,0,MD,0
1034,1034,2020-06-01,42.658,-71.137,0,MA,Andover
1035,1035,2020-06-01,42.25,-71.066,0,MA,Milton
1036,1036,2020-06-01,46.495,-84.345,0,MI,Sault Ste. Marie
1037,1037,2020-06-01,43.955,-86.45299999999997,0,MI,0
1038,1038,2020-06-01,45.028,-84.675,0,MI,Gaylord
1039,1039,2020-06-01,42.324,-83.4,0,MI,Westland
1040,1040,2020-06-01,45.198,-93.387,0,MN,Anoka
1041,1041,2020-06-01,44.89,-93.35,0,MN,Edina
1042,1042,2020-06-01,44.983,-93.267,Hennepin Avenue,MN,Minneapolis
1043,1043,2020-06-01,44.951,-93.095,East 10th Street,MN,St. Paul
1044,1044,2020-06-01,37.208,-93.29,South Jefferson Avenue,MO,Springfield
1045,1045,2020-06-01,37.084,-94.514,West 7th Street,MO,Joplin
1046,1046,2020-06-01,39.015,-74.882,Middle Township Bike Path,NJ,Middle Township
1047,1047,2020-06-01,40.796,-74.315,0,NJ,Livingston
1048,1048,2020-06-01,40.854,-74.829,0,NJ,Hackettstown
1049,1049,2020-06-01,32.269,-107.759,0,NM,Deming
1050,1050,2020-06-01,42.122,-77.94800000000002,0,NY,0
1051,1051,2020-06-01,43.213,-75.456,West Park Street,NY,City of Rome
1052,1052,2020-06-01,40.843,-73.293,0,NY,0
1053,1053,2020-06-01,40.868,-73.426,High Street,NY,Huntington
1054,1054,2020-06-01,40.946,-73.069,0,NY,0
1055,1055,2020-06-01,40.706,-73.306,0,NY,0
1056,1056,2020-06-01,42.661,-77.054,0,NY,0
1057,1057,2020-06-01,36.1,-80.244,East 5th Street,NC,Winston-Salem
1058,1058,2020-06-01,35.48900000000001,-82.98899999999998,0,NC,Waynesville
1059,1059,2020-06-01,35.319,-82.461,0,NC,Hendersonville
1060,1060,2020-06-01,36.295,-76.251,0,NC,Elizabeth City
1061,1061,2020-06-01,41.449,-82.708,West Park Street,OH,Sandusky
1062,1062,2020-06-01,38.81,-82.20200000000001,0,OH,0
1063,1063,2020-06-01,39.709,-84.06299999999997,0,OH,Beavercreek
1064,1064,2020-06-01,41.724,-81.24600000000002,0,OH,Painesville
1065,1065,2020-06-01,39.628,-84.15899999999998,0,OH,Centerville
1066,1066,2020-06-01,41.158,-81.242,0,OH,Ravenna
1067,1067,2020-06-01,40.805,-81.936,0,OH,Wooster
1068,1068,2020-06-01,35.223,-97.439,North Porter Avenue,OK,Norman
1069,1069,2020-06-01,40.31,-75.13,0,PA,Doylestown
1070,1070,2020-06-01,41.956,-78.64399999999998,0,PA,0
1071,1071,2020-06-01,40.789,-76.559,0,PA,Shamokin
1072,1072,2020-06-01,32.855,-79.975,Rivers Avenue,SC,North Charleston
1073,1073,2020-06-01,45.465,-98.486,Court Street,SD,Aberdeen
1074,1074,2020-06-01,44.367,-100.354,West Sioux Avenue,SD,Pierre
1075,1075,2020-06-01,35.967,-83.18799999999997,0,TN,0
1076,1076,2020-06-01,35.683,-85.77,0,TN,McMinnville
1077,1077,2020-06-01,31.762,-95.631,0,TX,Palestine
1078,1078,2020-06-01,33.032,-97.079,0,TX,Flower Mound
1079,1079,2020-06-01,31.997,-102.078,South Big Spring Street,TX,Midland
1080,1080,2020-06-01,33.914,-98.493,6th Street,TX,Wichita Falls
1081,1081,2020-06-01,37.104,-113.584,South Main Street,UT,St. George
1082,1082,2020-06-01,43.396,-72.70100000000002,0,VT,0
1083,1083,2020-06-01,36.678,-76.922,0,VA,Franklin
1084,1084,2020-06-01,38.796,-77.61399999999998,0,VA,Gainesville
1085,1085,2020-06-01,37.271,-79.941,Kirk Avenue Southwest,VA,Roanoke
1086,1086,2020-06-01,38.303,-77.461,0,VA,Fredericksburg
1087,1087,2020-06-01,36.728,-76.585,South Saratoga Street,VA,Suffolk
1088,1088,2020-06-01,46.66,-122.963,0,WA,Chehalis
1089,1089,2020-06-01,48.534,-123.017,0,WA,0
1090,1090,2020-06-01,47.979,-122.202,Oakes Avenue,WA,Everett
1091,1091,2020-06-01,45.637,-89.412,0,WI,Rhinelander
1092,1092,2020-06-01,43.557,-90.889,0,WI,0
1093,1093,2020-06-01,42.963,-85.66799999999998,West Fulton Street,MI,Grand Rapids
1094,1094,2020-06-01,33.961,-83.37799999999999,North Lumpkin Street,GA,Athens-Clarke County Unified Government
1095,1095,2020-06-01,28.065,-81.789,0,FL,0
1096,1096,2020-06-01,40.031,-81.58800000000002,0,OH,Cambridge
1097,1097,2020-06-01,35.046,-85.31,West Martin Luther King Boulevard,TN,Chattanooga
1098,1098,2020-06-01,32.461,-84.988,8th Street,GA,Columbus
1099,1099,2020-06-01,41.929,-88.75,0,IL,DeKalb
1100,1100,2020-06-01,44.81100000000001,-91.498,South Farwell Street,WI,Eau Claire
1101,1101,2020-06-01,41.368,-82.10799999999998,West Broad Street,OH,Elyria
1102,1102,2020-06-01,43.01300000000001,-83.68700000000003,East Court Street,MI,Flint
1103,1103,2020-06-01,42.753,-84.74600000000002,0,MI,0
1104,1104,2020-06-01,36.073,-79.792,West Market Street,NC,Greensboro
1105,1105,2020-06-01,39.643,-77.72,North Potomac Street,MD,Hagerstown
1106,1106,2020-06-01,40.273,-76.887,Reily Street,PA,Harrisburg
1107,1107,2020-06-01,34.504,-93.055,West Grand Avenue,AR,Hot Springs
1108,1108,2020-06-01,32.299,-90.186,East Pearl Street,MS,Jackson
1109,1109,2020-06-01,30.332,-81.657,Union Street,FL,Jacksonville
1110,1110,2020-06-01,33.831,-87.27799999999998,0,AL,Jasper
1111,1111,2020-06-01,27.254,-80.23,0,FL,Jensen Beach
1112,1112,2020-06-01,40.486,-86.134,0,IN,Kokomo
1113,1113,2020-06-01,33.447,-84.147,0,GA,McDonough
1114,1114,2020-06-01,42.333,-88.26700000000002,0,IL,McHenry
1115,1115,2020-06-01,25.765,-80.194,South Miami Avenue,FL,Miami
1116,1116,2020-06-01,33.381,-84.8,0,GA,Newnan
1117,1117,2020-06-01,28.535,-81.387,East-West Expressway,FL,Orlando
1118,1118,2020-06-01,45.37300000000001,-84.955,0,MI,0
1119,1119,2020-06-01,30.526,-89.68,0,MS,Picayune
1120,1120,2020-06-01,42.726000000000006,-87.78299999999999,7th Street,WI,Racine
1121,1121,2020-06-01,32.084,-81.1,North Fahm Street,GA,Savannah
1122,1122,2020-06-01,43.089,-87.88799999999998,0,WI,Shorewood
1123,1123,2020-06-01,42.497,-96.405,Pierce Street,IA,Sioux City
1124,1124,2020-06-01,30.438,-84.28,Apalachee Parkway,FL,Tallahassee
1125,1125,2020-06-01,41.664,-83.555,Collingwood Boulevard,OH,Toledo
1126,1126,2020-06-01,34.731,-87.70299999999997,0,AL,0
1127,1127,2020-06-01,41.026,-81.73,0,OH,Wadsworth
1128,1128,2020-06-01,42.493,-92.343,Washington Street,IA,Waterloo
1129,1129,2020-06-01,42.364,-87.84700000000002,0,IL,Waukegan
1130,1130,2020-06-01,28.072,-80.653,0,FL,West Melbourne
1131,1131,2020-06-01,41.354,-71.96600000000002,0,CT,Stonington
1132,1132,2020-06-01,42.037,-88.281,Villa Street,IL,Elgin
1133,1133,2020-06-01,40.459,-90.672,0,IL,Macomb
1134,1134,2020-06-01,37.731,-88.93299999999998,0,IL,Marion
1135,1135,2020-06-01,33.306,-111.841,North Arizona Avenue,AZ,Chandler
1136,1136,2020-06-01,35.708,-79.814,0,NC,Asheboro
1137,1137,2020-06-01,32.348,-97.387,0,TX,Cleburne
1138,1138,2020-06-01,33.037,-117.292,0,CA,Encinitas
1139,1139,2020-06-01,34.092,-117.435,Merrill Avenue,CA,Fontana
1140,1140,2020-06-01,33.143,-117.166,0,CA,San Marcos
1141,1141,2020-06-01,32.995,-117.262,0,CA,Solana Beach
1142,1142,2020-06-01,34.035,-117.042,0,CA,Yucaipa
1143,1143,2020-06-01,28.035,-80.589,Magnolia Street Northeast,FL,Palm Bay
1144,1144,2020-06-01,42.416,-71.156,0,MA,Arlington
1145,1145,2020-06-01,42.276,-77.75399999999998,0,NY,0
1146,1146,2020-06-01,44.883,-68.672,0,ME,0
1147,1147,2020-06-01,42.85,-77.012,0,NY,0
1148,1148,2020-06-01,40.811,-72.85600000000002,0,NY,0
1149,1149,2020-06-01,41.636,-70.934,Cottage Street,MA,New Bedford
1150,1150,2020-06-01,42.346,-71.548,Florence Street,MA,Marlborough
1151,1151,2020-06-01,42.102,-72.59,Pynchon Street,MA,Springfield
1152,1152,2020-06-01,36.847,-76.285,East City Hall Avenue,VA,Norfolk
1153,1153,2020-06-01,36.847,-76.285,East City Hall Avenue,VA,Norfolk
1154,1154,2020-06-01,39.84,-88.955,0,IL,Decatur
1155,1155,2020-06-01,30.275,-97.74,East 11th Street,TX,Austin
1156,1156,2020-06-01,47.606,-122.333,Madison Street,WA,Seattle
1157,1157,2020-06-01,39.952,-75.164,East Penn Square,PA,Philadelphia
1158,1158,2020-06-01,39.143,-77.20100000000002,0,MD,Gaithersburg
1159,1159,2020-06-01,36.678,-121.656,North Main Street,CA,Salinas
1160,1160,2020-06-01,42.335,-83.04799999999999,Broadway Street,MI,Detroit
1161,1161,2020-06-01,37.694,-122.086,0,CA,Castro Valley
1162,1162,2020-06-01,32.509,-92.119,North 4th Street,LA,Monroe
1163,1163,2020-06-01,35.084,-106.651,3rd Street Southwest,NM,Albuquerque
1164,1164,2020-06-01,32.25,-101.479,0,TX,Big Spring
1165,1165,2020-06-01,30.167,-96.398,0,TX,Brenham
1166,1166,2020-06-01,33.858000000000004,-118.065,0,CA,Cerritos
1167,1167,2020-06-01,33.875,-117.566,East 6th Street,CA,Corona
1168,1168,2020-06-01,42.44,-79.332,0,NY,Fredonia
1169,1169,2020-06-01,43.154,-93.202,0,IA,Mason City
1170,1170,2020-06-01,30.411,-88.82799999999997,0,MS,Ocean Springs
1171,1171,2020-06-01,35.536,-100.96,0,TX,Pampa
1172,1172,2020-06-01,36.355,-79.664,0,NC,Reidsville
1173,1173,2020-06-01,42.295,-71.71300000000002,0,MA,Shrewsbury
1174,1174,2020-06-01,41.124,-88.83,0,IL,Streator
1175,1175,2020-06-01,41.45399999999999,-70.604,0,MA,Tisbury
1176,1176,2020-06-01,38.354,-121.973,Aegean Way,CA,Vacaville
1177,1177,2020-06-01,40.664,-73.708,0,NY,Valley Stream
1178,1178,2020-06-01,34.02,-117.865,0,CA,Walnut
1179,1179,2020-06-01,34.069,-117.939,0,CA,West Covina
1180,1180,2020-06-01,38.76300000000001,-121.164,0,CA,0
1181,1181,2020-06-01,40.599,-77.571,0,PA,Lewistown
1182,1182,2020-06-01,33.492,-80.85600000000002,0,SC,Orangeburg
1183,1183,2020-06-01,36.835,-76.298,Crawford Street,VA,Portsmouth
1184,1184,2020-06-01,40.038,-76.305,East King Street,PA,Lancaster
1185,1185,2020-06-01,32.431999999999995,-80.67,0,SC,Beaufort
1186,1186,2020-06-01,38.408,-85.37899999999998,0,KY,La Grange
1187,1187,2020-06-02,32.736,-97.108,West Main Street,TX,Arlington
1188,1188,2020-06-02,35.209,-118.829,0,CA,Arvin
1189,1189,2020-06-02,35.601,-82.554,Marcellus Street,NC,Asheville
1190,1190,2020-06-02,33.274,-85.836,0,AL,0
1191,1191,2020-06-02,30.275,-97.74,East 11th Street,TX,Austin
1192,1192,2020-06-02,35.37300000000001,-119.019,Chester Avenue,CA,Bakersfield
1193,1193,2020-06-02,30.086,-94.102,Willow Street,TX,Beaumont
1194,1194,2020-06-02,33.923,-117.889,0,CA,Brea
1195,1195,2020-06-02,37.798,-121.07,0,CA,Escalon
1196,1196,2020-06-02,32.777,-79.931,Meeting Street,SC,Charleston
1197,1197,2020-06-02,34.0,-81.033,Gervais Street,SC,Columbia
1198,1198,2020-06-02,32.779,-96.8,South Akard Street,TX,"Dallas, TX"
1199,1199,2020-06-02,35.769,-119.247,0,CA,Delano
1200,1200,2020-06-02,35.994,-78.899,East Main Street,NC,Durham
1201,1201,2020-06-02,31.762,-106.485,North Campbell Street,TX,El Paso
1202,1202,2020-06-02,35.198,-111.651,East Historic Route 66,AZ,Flagstaff
1203,1203,2020-06-02,32.725,-97.321,South Freeway,TX,Fort Worth
1204,1204,2020-06-02,35.925,-86.869,3rd Avenue South,TN,Franklin
1205,1205,2020-06-02,37.548,-121.988,Mowry Avenue,CA,Fremont
1206,1206,2020-06-02,19.73,-155.091,Lehua Street,HI,Hilo CDP
1207,1207,2020-06-02,33.472,-86.801,0,AL,Homewood
1208,1208,2020-06-02,33.405,-86.811,Whispering Pines Circle,AL,Hoover
1209,1209,2020-06-02,36.175,-115.137,Las Vegas Boulevard North,NV,Las Vegas
1210,1210,2020-06-02,34.639,-120.458,0,CA,Lompoc
1211,1211,2020-06-02,38.97,-123.688,0,CA,0
1212,1212,2020-06-02,37.869,-122.509,0,CA,0
1213,1213,2020-06-02,30.694000000000006,-88.04299999999998,Saint Joseph Street,AL,Mobile
1214,1214,2020-06-02,38.297,-122.287,Randolph Street,CA,Napa
1215,1215,2020-06-02,36.01,-84.27,0,TN,Oak Ridge
1216,1216,2020-06-02,34.449,-119.247,0,CA,0
1217,1217,2020-06-02,34.142,-118.15,Mercantile Place,CA,Pasadena
1218,1218,2020-06-02,33.449,-112.074,South Central Avenue,AZ,Phoenix
1219,1219,2020-06-02,35.781,-78.639,East Edenton Street,NC,Raleigh
1220,1220,2020-06-02,40.586,-122.39,Pine Street,CA,Redding
1221,1221,2020-06-02,37.485,-122.236,Brewster Avenue,CA,Redwood City
1222,1222,2020-06-02,39.53,-119.814,East 4th Street,NV,Reno
1223,1223,2020-06-02,38.752,-121.289,Main Street,CA,Roseville
1224,1224,2020-06-02,32.717,-117.166,West B Street,CA,San Diego
1225,1225,2020-06-02,37.334,-121.891,South Market Street,CA,San Jose
1226,1226,2020-06-02,37.563,-122.326,West 3rd Avenue,CA,San Mateo
1227,1227,2020-06-02,37.354,-121.956,Civic Center Drive,CA,Santa Clara
1228,1228,2020-06-02,34.019,-118.496,5th Street,CA,Santa Monica
1229,1229,2020-06-02,37.958,-121.291,North El Dorado Street,CA,Stockton
1230,1230,2020-06-02,35.142,-119.457,0,CA,0
1231,1231,2020-06-02,35.132,-118.449,0,CA,Tehachapi
1232,1232,2020-06-02,37.906,-122.065,0,CA,Walnut Creek
1233,1233,2020-06-02,44.636,-123.106,Ferry Street Southwest,OR,Albany
1234,1234,2020-06-02,38.979,-76.491,State Circle,MD,Annapolis
1235,1235,2020-06-02,40.393,-95.839,0,NE,Auburn
1236,1236,2020-06-02,39.729,-104.832,Uvalda Street,CO,Aurora
1237,1237,2020-06-02,39.29,-76.612,Charles Plaza,MD,Baltimore
1238,1238,2020-06-02,38.981,-77.1,Bethesda Avenue,MD,Bethesda
1239,1239,2020-06-02,43.619,-116.2,North 8th Street,ID,Boise
1240,1240,2020-06-02,39.372,-104.856,0,CO,Castle Rock
1241,1241,2020-06-02,47.678,-116.78,East Foster Avenue,ID,Coeur d'Alene
1242,1242,2020-06-02,39.961,-82.999,East Capital Street,OH,Columbus
1243,1243,2020-06-02,39.739,-104.991,Bannock Street,CO,Denver
1244,1244,2020-06-02,39.158,-75.524,Loockerman Plaza,DE,Dover
1245,1245,2020-06-02,39.414,-77.41,East Patrick Street,MD,Frederick
1246,1246,2020-06-02,40.925,-98.342,West 3rd Street,NE,Grand Island
1247,1247,2020-06-02,40.273,-76.887,Reily Street,PA,Harrisburg
1248,1248,2020-06-02,43.467,-112.034,West Stone Run Lane,ID,Idaho Falls
1249,1249,2020-06-02,66.898,-162.59799999999996,0,AK,Kotzebue
1250,1250,2020-06-02,42.734,-84.555,West Ottawa Street,MI,Lansing
1251,1251,2020-06-02,38.041,-84.50399999999998,Avenue of Champions,KY,Lexington
1252,1252,2020-06-02,44.983,-93.267,Hennepin Avenue,MN,Minneapolis
1253,1253,2020-06-02,39.63,-79.956,0,WV,Morgantown
1254,1254,2020-06-02,40.69,-73.986,Livingston Street,NY,New York
1255,1255,2020-06-02,44.637,-124.053,0,OR,Newport
1256,1256,2020-06-02,41.257,-95.934,Farnam Street,NE,Omaha
1257,1257,2020-06-02,42.871,-112.446,East Hayden Street,ID,Pocatello
1258,1258,2020-06-02,37.539,-77.434,North 10th Street,VA,Richmond
1259,1259,2020-06-02,44.938,-123.03,State Street,OR,Salem
1260,1260,2020-06-02,40.778,-111.888,0,UT,Salt Lake City
1261,1261,2020-06-02,47.66,-117.429,West Main Avenue,WA,Spokane
1262,1262,2020-06-02,39.374,-76.968,0,MD,0
1263,1263,2020-06-02,47.253,-122.444,Tacoma Avenue South,WA,Tacoma
1264,1264,2020-06-02,45.385,-122.772,0,OR,Tualatin
1265,1265,2020-06-02,36.853,-75.97800000000002,25th Street,VA,Virginia Beach
1266,1266,2020-06-02,39.577,-77.0,0,MD,Westminster
1267,1267,2020-06-02,41.142,-73.358,0,CT,Westport
1268,1268,2020-06-02,38.952,-92.334,North Providence Road,MO,Columbia
1269,1269,2020-06-02,42.416,-71.156,0,MA,Arlington
1270,1270,2020-06-02,34.109,-83.76299999999998,0,GA,Braselton
1271,1271,2020-06-02,30.105,-81.416,0,FL,Nocatee
1272,1272,2020-06-02,43.048,-76.14699999999998,South State Street,NY,Syracuse
1273,1273,2020-06-02,41.64100000000001,-73.321,0,CT,Washington
1274,1274,2020-06-02,60.792,-161.756,0,AK,Bethel
1275,1275,2020-06-02,40.618,-98.097,0,NE,Harvard
1276,1276,2020-06-02,59.642,-151.549,Homer Bypass Road,AK,Homer
1277,1277,2020-06-02,43.683,-114.361,0,ID,Ketchum
1278,1278,2020-06-02,41.31100000000001,-105.594,East Grand Avenue,WY,Laramie
1279,1279,2020-06-02,46.872,-113.994,East Broadway Street,MT,Missoula
1280,1280,2020-06-02,41.589,-109.219,Noble Drive,WY,Rock Springs
1281,1281,2020-06-02,36.613,-121.845,The Mall,CA,Seaside
1282,1282,2020-06-02,32.351,-95.301,West Erwin Street,TX,Tyler
1283,1283,2020-06-02,27.866,-82.32600000000002,0,FL,Riverview
1284,1284,2020-06-02,45.465,-98.486,Court Street,SD,Aberdeen
1285,1285,2020-06-02,42.99800000000001,-78.188,0,NY,Batavia
1286,1286,2020-06-02,42.053,-124.284,0,OR,Brookings
1287,1287,2020-06-02,46.879,-102.79,West Villard Street,ND,Dickinson
1288,1288,2020-06-02,36.244,-80.85,0,NC,Elkin
1289,1289,2020-06-02,41.14100000000001,-73.264,0,CT,Fairfield
1290,1290,2020-06-02,45.52,-123.111,0,OR,Forest Grove
1291,1291,2020-06-02,42.43899999999999,-123.331,0,OR,Grants Pass
1292,1292,2020-06-02,41.026,-73.628,0,CT,Greenwich
1293,1293,2020-06-02,40.718,-74.041,Marin Boulevard,NJ,Jersey City
1294,1294,2020-06-02,43.826,-111.79,0,ID,Rexburg
1295,1295,2020-06-02,37.78,-121.978,0,CA,San Ramon
1296,1296,2020-06-02,42.563,-114.461,Addison Avenue,ID,Twin Falls
1297,1297,2020-06-02,41.562,-72.65100000000002,Main Street,CT,Middletown
1298,1298,2020-06-02,40.731,-73.796,174th Street,NY,New York
1299,1299,2020-06-02,42.28,-83.74600000000002,South Fifth Avenue,MI,Ann Arbor
1300,1300,2020-06-02,36.313,-95.616,0,OK,Claremore
1301,1301,2020-06-02,41.482,-81.67,Rockefeller Avenue,OH,Cleveland
1302,1302,2020-06-02,42.444,-82.90700000000002,0,MI,Grosse Pointe Woods
1303,1303,2020-06-02,40.194,-92.584,0,MO,Kirksville
1304,1304,2020-06-02,43.075,-89.384,East Main Street,WI,Madison
1305,1305,2020-06-02,39.183,-96.571,Osage Street,KS,Manhattan
1306,1306,2020-06-02,46.54600000000001,-87.40700000000002,West Bluff Street,MI,Marquette
1307,1307,2020-06-02,47.483,-122.217,0,WA,Renton
1308,1308,2020-06-02,43.089,-87.88799999999998,0,WI,Shorewood
1309,1309,2020-06-02,44.076,-103.228,South Street,SD,Rapid City
1310,1310,2020-06-02,38.805,-77.047,South Washington Street,VA,Alexandria
1311,1311,2020-06-02,38.678,-121.176,0,CA,Folsom
1312,1312,2020-06-02,26.191,-97.696,South 1st Street,TX,Harlingen
1313,1313,2020-06-02,35.19,-114.053,North 4th Street,AZ,Kingman
1314,1314,2020-06-02,33.046,-96.994,South Mill Street,TX,Lewisville
1315,1315,2020-06-02,37.058,-120.85,0,CA,Los Banos
1316,1316,2020-06-02,29.703000000000007,-98.124,Main Plaza,TX,New Braunfels
1317,1317,2020-06-02,38.729,-120.801,0,CA,Placerville
1318,1318,2020-06-02,33.02,-96.699,K Avenue,TX,Plano
1319,1319,2020-06-02,42.253,-71.002,Hancock Street,MA,Quincy
1320,1320,2020-06-02,44.052,-123.087,Mill Street,OR,Eugene
1321,1321,2020-06-02,42.585,-87.824,55th Street,WI,Kenosha
1322,1322,2020-06-02,35.635,-117.678,0,CA,Ridgecrest
1323,1323,2020-06-02,34.138000000000005,-118.665,0,CA,Calabasas
1324,1324,2020-06-02,34.228,-118.239,Alabama Street,CA,Glendale
1325,1325,2020-06-02,34.581,-118.125,East Avenue Q 7,CA,Palmdale
1326,1326,2020-06-02,33.979,-118.03,0,CA,Whittier
1327,1327,2020-06-02,33.685,-117.827,Alton Parkway,CA,Irvine
1328,1328,2020-06-02,33.664,-116.312,0,CA,La Quinta
1329,1329,2020-06-02,33.989000000000004,-117.736,0,CA,Chino Hills
1330,1330,2020-06-02,33.017,-117.113,0,CA,0
1331,1331,2020-06-02,33.042,-116.868,0,CA,Ramona
1332,1332,2020-06-02,39.728,-121.837,East 6th Street,CA,Chico
1333,1333,2020-06-02,39.342,-120.204,0,CA,Truckee
1334,1334,2020-06-02,39.236,-120.02,0,CA,0
1335,1335,2020-06-02,59.236,-135.445,0,AK,Haines
1336,1336,2020-06-02,31.34,-110.934,0,AZ,Nogales
1337,1337,2020-06-02,39.945,-105.814,0,CO,Fraser
1338,1338,2020-06-02,38.535,-105.999,0,CO,Salida
1339,1339,2020-06-02,39.441,-78.97399999999998,0,WV,Keyser
1340,1340,2020-06-02,43.611,-72.973,0,VT,Rutland City
1341,1341,2020-06-02,46.283,-96.078,0,MN,Fergus Falls
1342,1342,2020-06-02,44.948,-95.717,0,MN,Montevideo
1343,1343,2020-06-02,43.62,-95.596,0,MN,Worthington
1344,1344,2020-06-02,37.781,-90.422,0,MO,Farmington
1345,1345,2020-06-02,36.73,-91.855,0,MO,West Plains
1346,1346,2020-06-02,38.45,-91.009,0,MO,Union
1347,1347,2020-06-02,35.67,-81.221,0,NC,Newton
1348,1348,2020-06-02,35.374,-83.226,0,NC,Sylva
1349,1349,2020-06-02,40.27,-74.523,0,NJ,0
1350,1350,2020-06-02,40.7,-74.359,0,NJ,0
1351,1351,2020-06-02,40.442,-75.342,0,PA,Quakertown
1352,1352,2020-06-02,41.92,-73.911,0,NY,0
1353,1353,2020-06-02,43.084,-73.78399999999998,Broadway,NY,City of Saratoga Springs
1354,1354,2020-06-02,41.076,-73.859,0,NY,Town of Greenburgh
1355,1355,2020-06-02,40.811,-72.85600000000002,0,NY,0
1356,1356,2020-06-02,40.908,-73.808,0,NY,Town of Pelham
1357,1357,2020-06-02,31.448,-109.928,0,AZ,Bisbee
1358,1358,2020-06-02,29.023000000000003,-81.286,0,FL,DeLand
1359,1359,2020-06-02,26.134,-80.113,Northeast 7th Place,FL,Fort Lauderdale
1360,1360,2020-06-02,48.277,-116.553,0,ID,Sandpoint
1361,1361,2020-06-02,36.996,-85.912,0,KY,Glasgow
1362,1362,2020-06-02,37.836,-87.59,0,KY,Henderson
1363,1363,2020-06-02,32.364000000000004,-88.704,7th Street,MS,Meridian
1364,1364,2020-06-02,35.084,-106.651,3rd Street Southwest,NM,Albuquerque
1365,1365,2020-06-02,40.869,-84.584,0,OH,Van Wert
1366,1366,2020-06-02,36.396,-97.878,South Grand Avenue,OK,Enid
1367,1367,2020-06-02,27.516,-97.856,0,TX,Kingsville
1368,1368,2020-06-02,44.283,-105.505,West Hogeye Drive,WY,Gillette
1369,1369,2020-06-02,43.119,-124.408,0,OR,0
1370,1370,2020-06-02,47.534,-122.042,0,WA,Issaquah
1371,1371,2020-06-02,46.13800000000001,-122.936,0,WA,Longview
1372,1372,2020-06-02,47.132,-119.274,0,WA,Moses Lake
1373,1373,2020-06-02,32.56,-83.154,0,GA,0
1374,1374,2020-06-02,33.398,-84.595,Market Place Connector,GA,Peachtree City
1375,1375,2020-06-02,31.761,-93.086,0,LA,Natchitoches
1376,1376,2020-06-02,39.963,-76.72800000000002,North George Street,PA,York
1377,1377,2020-06-02,26.271,-80.266,0,FL,0
1378,1378,2020-06-02,40.381,-74.513,0,NJ,0
1379,1379,2020-06-02,41.284,-81.096,0,OH,0
1380,1380,2020-06-02,33.889,-118.405,0,CA,Manhattan Beach
1381,1381,2020-06-02,41.543,-87.685,0,IL,0
1382,1382,2020-06-02,40.772,-73.93,Astoria Boulevard,NY,New York
1383,1383,2020-06-02,39.843,-82.805,0,OH,0
1384,1384,2020-06-02,37.941,-121.937,0,CA,Clayton
1385,1385,2020-06-02,34.034,-117.043,0,CA,Yucaipa
1386,1386,2020-06-02,37.083,-88.6,South 7th Street,KY,Paducah
1387,1387,2020-06-02,33.641,-117.603,0,CA,Rancho Santa Margarita
1388,1388,2020-06-02,33.889,-117.815,0,CA,Yorba Linda
1389,1389,2020-06-02,39.101,-120.953,South Main Street,CA,Colfax
1390,1390,2020-06-02,41.31,-122.312,0,CA,0
1391,1391,2020-06-02,38.285,-122.421,0,CA,0
1392,1392,2020-06-02,38.87,-106.988,0,CO,Crested Butte
1393,1393,2020-06-02,38.546,-106.925,0,CO,Gunnison
1394,1394,2020-06-02,38.478,-107.876,0,CO,Montrose
1395,1395,2020-06-02,41.767,-72.676,Asylum Street,CT,Hartford
1396,1396,2020-06-02,41.661,-72.78,Rockwell Avenue,CT,New Britain
1397,1397,2020-06-02,41.87600000000001,-72.801,0,CT,Simsbury
1398,1398,2020-06-02,41.82899999999999,-72.553,0,CT,South Windsor
1399,1399,2020-06-02,41.354,-71.96600000000002,0,CT,Stonington
1400,1400,2020-06-02,41.524,-72.07600000000002,Courthouse Square,CT,Norwich
1401,1401,2020-06-02,34.075,-84.294,0,GA,Alpharetta
1402,1402,2020-06-02,32.54,-82.904,0,GA,Dublin
1403,1403,2020-06-02,34.011,-85.256,0,GA,Cedartown
1404,1404,2020-06-02,33.471,-81.975,Walton Way,GA,Augusta
1405,1405,2020-06-02,41.699,-88.068,0,IL,Bolingbrook
1406,1406,2020-06-02,40.558,-90.035,0,IL,Canton
1407,1407,2020-06-02,38.677,-87.529,0,IN,Vincennes
1408,1408,2020-06-02,41.676,-86.25,South Michigan Street,IN,South Bend
1409,1409,2020-06-02,41.844,-90.189,0,IA,Clinton
1410,1410,2020-06-02,40.808,-91.113,0,IA,Burlington
1411,1411,2020-06-02,37.646,-84.772,0,KY,Danville
1412,1412,2020-06-02,36.843,-83.322,0,KY,0
1413,1413,2020-06-02,30.447,-91.189,North Boulevard,LA,Baton Rouge
1414,1414,2020-06-02,31.311,-92.445,Murray Street,LA,Alexandria
1415,1415,2020-06-02,44.543,-68.419,0,ME,Ellsworth
1416,1416,2020-06-02,43.911,-69.821,0,ME,0
1417,1417,2020-06-02,39.24,-76.839,Clarksville Pike,MD,Columbia
1418,1418,2020-06-02,42.849,-70.944,Baker Street,MA,Amesbury
1419,1419,2020-06-02,42.735,-84.484,0,MI,East Lansing
1420,1420,2020-06-02,42.49,-83.01299999999998,East 11 Mile Road,MI,Warren
1421,1421,2020-06-02,42.547,-83.211,0,MI,Birmingham
1422,1422,2020-06-02,42.322,-83.176,Schaefer Road,MI,Dearborn
1423,1423,2020-06-02,42.368,-83.353,0,MI,Livonia
1424,1424,2020-06-02,45.161,-93.235,0,MN,Blaine
1425,1425,2020-06-02,43.648,-93.368,0,MN,Albert Lea
1426,1426,2020-06-02,39.784,-93.074,0,MO,Brookfield
1427,1427,2020-06-02,42.82899999999999,-103.0,0,NE,Chadron
1428,1428,2020-06-02,41.43,-97.368,33rd Avenue,NE,Columbus
1429,1429,2020-06-02,40.84,-74.277,0,NJ,0
1430,1430,2020-06-02,40.356,-74.669,0,NJ,Princeton
1431,1431,2020-06-02,40.858,-74.426,0,NJ,Parsippany-Troy Hills
1432,1432,2020-06-02,40.858,-74.164,0,NJ,Clifton
1433,1433,2020-06-02,40.658,-74.3,0,NJ,Cranford
1434,1434,2020-06-02,41.539,-74.063,0,NY,0
1435,1435,2020-06-02,40.938,-72.301,0,NY,0
1436,1436,2020-06-02,41.602,-75.058,0,NY,0
1437,1437,2020-06-02,48.147,-103.618,East Broadway,ND,Williston
1438,1438,2020-06-02,41.43600000000001,-81.38600000000002,0,OH,0
1439,1439,2020-06-02,39.725,-84.17399999999998,0,OH,0
1440,1440,2020-06-02,41.154,-81.358,0,OH,Kent
1441,1441,2020-06-02,41.24,-81.441,0,OH,Hudson
1442,1442,2020-06-02,40.805,-81.936,0,OH,Wooster
1443,1443,2020-06-02,44.058,-121.315,Northwest Franklin Avenue,OR,Bend
1444,1444,2020-06-02,40.334,-75.637,0,PA,0
1445,1445,2020-06-02,40.051,-77.52,0,PA,Shippensburg
1446,1446,2020-06-02,32.954,-96.89,0,TX,Carrollton
1447,1447,2020-06-02,29.347,-99.141,0,TX,Hondo
1448,1448,2020-06-02,31.796,-94.179,0,TX,Center
1449,1449,2020-06-02,29.37,-100.895,East 3rd Street,TX,Del Rio
1450,1450,2020-06-02,41.735,-111.834,0,UT,Logan
1451,1451,2020-06-02,40.297,-111.695,South State Street,UT,Orem
1452,1452,2020-06-02,44.81,-73.087,0,VT,Saint Albans
1453,1453,2020-06-02,43.833,-72.634,0,VT,0
1454,1454,2020-06-02,36.586,-79.395,0,VA,Danville
1455,1455,2020-06-02,37.302,-78.392,0,VA,Farmville
1456,1456,2020-06-02,47.307,-122.228,0,WA,Auburn
1457,1457,2020-06-02,42.678,-88.27600000000002,0,WI,Burlington
1458,1458,2020-06-02,43.534,-109.63,0,WY,0
1459,1459,2020-06-02,36.163,-85.50200000000002,0,TN,Cookeville
1460,1460,2020-06-02,37.414,-79.142,Main Street,VA,Lynchburg
1461,1461,2020-06-02,37.23,-80.414,0,VA,Blacksburg
1462,1462,2020-06-02,41.004,-76.455,0,PA,Bloomsburg
1463,1463,2020-06-02,26.359,-80.083,Northeast 10th Street,FL,Boca Raton
1464,1464,2020-06-02,26.34,-81.779,0,FL,0
1465,1465,2020-06-02,35.046,-85.31,West Martin Luther King Boulevard,TN,Chattanooga
1466,1466,2020-06-02,39.127,-84.514,Cliff Street,OH,Cincinnati
1467,1467,2020-06-02,36.53,-87.359,College Street,TN,Clarksville
1468,1468,2020-06-02,41.676,-91.58,0,IA,Coralville
1469,1469,2020-06-02,41.929,-88.75,0,IL,DeKalb
1470,1470,2020-06-02,42.5,-90.665,Iowa Street,IA,Dubuque
1471,1471,2020-06-02,36.063,-94.157,County Avenue,AR,Fayetteville
1472,1472,2020-06-02,26.622,-81.84100000000002,Ironbridge Boulevard,FL,Fort Myers
1473,1473,2020-06-02,29.652,-82.32700000000001,West University Avenue,FL,City of Gainesville Municipal Boundaries
1474,1474,2020-06-02,35.087,-89.81,0,TN,Germantown
1475,1475,2020-06-02,42.963,-85.66799999999998,West Fulton Street,MI,Grand Rapids
1476,1476,2020-06-02,44.519,-88.02,North Broadway,WI,Green Bay
1477,1477,2020-06-02,41.583,-87.5,0,IN,Hammond
1478,1478,2020-06-02,38.739,-89.671,0,IL,0
1479,1479,2020-06-02,39.769,-86.15799999999999,Monument Circle,IN,Indianapolis
1480,1480,2020-06-02,42.987,-85.071,0,MI,Ionia
1481,1481,2020-06-02,36.313,-82.353,Ashe Street,TN,Johnson City
1482,1482,2020-06-02,39.69,-84.169,0,OH,Kettering
1483,1483,2020-06-02,40.417,-86.875,Grant Street,IN,Lafayette
1484,1484,2020-06-02,30.213,-93.204,Enterprise Boulevad,LA,Lake Charles
1485,1485,2020-06-02,32.841,-83.632,Spring Street,GA,Macon
1486,1486,2020-06-02,25.765,-80.194,South Miami Avenue,FL,Miami
1487,1487,2020-06-02,33.629,-91.791,0,AR,0
1488,1488,2020-06-02,26.142,-81.794,5th Avenue South,FL,Naples
1489,1489,2020-06-02,41.004,-80.347,North Jefferson Street,PA,New Castle
1490,1490,2020-06-02,40.058,-82.40100000000002,0,OH,Newark
1491,1491,2020-06-02,36.847,-76.285,East City Hall Avenue,VA,Norfolk
1492,1492,2020-06-02,40.694,-89.589,Northeast Jefferson Avenue,IL,Peoria
1493,1493,2020-06-02,45.37300000000001,-84.955,0,MI,0
1494,1494,2020-06-02,30.526,-89.68,0,MS,Picayune
1495,1495,2020-06-02,40.158,-83.075,0,OH,Powell
1496,1496,2020-06-02,43.287,-89.72399999999998,0,WI,0
1497,1497,2020-06-02,27.336,-82.531,Washington Boulevard,FL,Sarasota
1498,1498,2020-06-02,43.75100000000001,-87.715,Center Avenue,WI,Sheboygan
1499,1499,2020-06-02,32.525,-93.75,Clyde Fant Memorial Parkway,LA,Shreveport
1500,1500,2020-06-02,42.497,-96.405,Pierce Street,IA,Sioux City
1501,1501,2020-06-02,36.699,-78.90100000000002,0,VA,South Boston
1502,1502,2020-06-02,34.95,-81.932,Dunbar Street,SC,Spartanburg
1503,1503,2020-06-02,30.438,-84.28,Apalachee Parkway,FL,Tallahassee
1504,1504,2020-06-02,43.979,-90.504,0,WI,Tomah
1505,1505,2020-06-02,44.76300000000001,-85.62100000000002,South Cass Street,MI,Traverse City
1506,1506,2020-06-02,42.606,-83.15,0,MI,Troy
1507,1507,2020-06-02,32.613,-83.624,Sunset Drive,GA,Warner Robins
1508,1508,2020-06-02,38.06800000000001,-78.889,0,VA,Waynesboro
1509,1509,2020-06-02,26.71,-80.064,Clearwater Place,FL,West Palm Beach
1510,1510,2020-06-02,43.113,-87.9,0,WI,Whitefish Bay
1511,1511,2020-06-02,34.226,-77.945,South 3rd Street,NC,Wilmington
1512,1512,2020-06-02,36.1,-80.244,East 5th Street,NC,Winston-Salem
1513,1513,2020-06-02,36.699,-78.90100000000002,0,VA,South Boston
1514,1514,2020-06-02,44.38399999999999,-89.81700000000002,0,WI,Wisconsin Rapids
1515,1515,2020-06-02,41.899,-87.94,0,IL,Elmhurst
1516,1516,2020-06-02,39.658,-78.928,0,MD,Frostburg
1517,1517,2020-06-02,38.991,-77.02600000000002,Mayor Lane,MD,Silver Spring
1518,1518,2020-06-02,46.455,-90.171,0,MI,Ironwood
1519,1519,2020-06-02,33.032,-97.079,0,TX,Flower Mound
1520,1520,2020-06-02,33.91,-81.204,0,SC,0
1521,1521,2020-06-02,40.26,-74.274,South Street,NJ,Freehold Borough
1522,1522,2020-06-02,42.474,-70.922,0,MA,Swampscott
1523,1523,2020-06-02,47.674,-122.122,0,WA,Redmond
1524,1524,2020-06-02,47.736,-122.646,0,WA,Poulsbo
1525,1525,2020-06-02,42.20399999999999,-72.616,Walnut Street,MA,Holyoke
1526,1526,2020-06-02,38.364,-98.765,0,KS,Great Bend
1527,1527,2020-06-02,32.348,-97.387,0,TX,Cleburne
1528,1528,2020-06-02,33.938,-117.231,Starcrest Drive,CA,Moreno Valley
1529,1529,2020-06-02,33.721,-116.374,0,CA,Palm Desert
1530,1530,2020-06-02,35.62699999999999,-120.691,0,CA,Paso Robles
1531,1531,2020-06-02,32.834,-109.708,0,AZ,Safford
1532,1532,2020-06-02,35.842,-90.704,Church Street,AR,Jonesboro
1533,1533,2020-06-02,35.745,-89.53,0,TN,Ripley
1534,1534,2020-06-02,42.276,-77.75399999999998,0,NY,0
1535,1535,2020-06-02,44.33,-74.131,0,NY,0
1536,1536,2020-06-02,40.665,-73.569,0,NY,Freeport
1537,1537,2020-06-02,40.588,-73.658,0,NY,Long Beach
1538,1538,2020-06-02,40.655,-73.579,0,NY,Freeport
1539,1539,2020-06-02,40.868,-73.426,High Street,NY,Huntington
1540,1540,2020-06-02,40.486,-74.452,Livingston Avenue,NJ,New Brunswick
1541,1541,2020-06-02,40.467,-74.457,0,NJ,0
1542,1542,2020-06-02,40.384,-74.533,0,NJ,0
1543,1543,2020-06-02,41.636,-70.934,Cottage Street,MA,New Bedford
1544,1544,2020-06-02,42.346,-71.548,Florence Street,MA,Marlborough
1545,1545,2020-06-02,41.45399999999999,-72.819,0,CT,"Wallingford, Connecticut"
1546,1546,2020-06-02,37.414,-79.142,Main Street,VA,Lynchburg
1547,1547,2020-06-02,41.809,-88.01100000000002,0,IL,Downers Grove
1548,1548,2020-06-02,42.726000000000006,-87.78299999999999,7th Street,WI,Racine
1549,1549,2020-06-02,42.798,-83.705,0,MI,Fenton
1550,1550,2020-06-02,41.12,-87.861,0,IL,Kankakee
1551,1551,2020-06-02,39.329,-82.101,0,OH,Athens
1552,1552,2020-06-02,36.929,-93.928,0,MO,Monett
1553,1553,2020-06-02,39.459,-82.23200000000001,0,OH,0
1554,1554,2020-06-02,39.507,-84.745,0,OH,Oxford
1555,1555,2020-06-02,42.011,-87.84100000000002,0,IL,Park Ridge
1556,1556,2020-06-02,41.573,-87.78399999999998,0,IL,Tinley Park
1557,1557,2020-06-02,42.614,-70.663,Dale Avenue,MA,Gloucester
1558,1558,2020-06-02,40.808,-96.7,K Street,NE,Lincoln
1559,1559,2020-06-02,44.26300000000001,-72.581,State Street,VT,Montpelier
1560,1560,2020-06-02,47.606,-122.333,Madison Street,WA,Seattle
1561,1561,2020-06-02,37.804,-122.271,Broadway,CA,Oakland
1562,1562,2020-06-02,48.76,-122.488,Broadway,WA,Bellingham
1563,1563,2020-06-02,32.831,-85.764,0,AL,0
1564,1564,2020-06-02,42.272,-84.963,0,MI,Marshall
1565,1565,2020-06-02,35.227,-80.843,East Trade Street,NC,Charlotte
1566,1566,2020-06-02,39.633,-105.317,0,CO,Evergreen
1567,1567,2020-06-02,37.682,-121.768,0,CA,Livermore
1568,1568,2020-06-02,38.751,-77.475,0,VA,Manassas
1569,1569,2020-06-02,32.319,-106.77,Avenida Encantada,NM,Las Cruces
1570,1570,2020-06-02,40.669,-73.528,0,NY,Hempstead
1571,1571,2020-06-02,43.154,-93.202,0,IA,Mason City
1572,1572,2020-06-02,39.957,-74.97399999999998,0,NJ,Moorestown
1573,1573,2020-06-02,34.538000000000004,-112.469,West Carleton Street,AZ,Prescott
1574,1574,2020-06-02,34.069,-117.939,0,CA,West Covina
1575,1575,2020-06-02,42.139,-83.242,0,MI,Woodhaven
1576,1576,2020-06-02,39.961,-75.608,0,PA,West Chester
1577,1577,2020-06-02,30.421,-87.21700000000001,East Cervantes Street,FL,Pensacola
1578,1578,2020-06-02,34.111999999999995,-118.153,0,CA,South Pasadena
1579,1579,2020-06-02,30.508000000000006,-97.674,Lake Creek Circle,TX,Round Rock
1580,1580,2020-06-02,32.431999999999995,-80.67,0,SC,Beaufort
1581,1581,2020-06-03,35.084,-106.651,3rd Street Southwest,NM,Albuquerque
1582,1582,2020-06-03,35.601,-82.554,Marcellus Street,NC,Asheville
1583,1583,2020-06-03,25.902,-97.498,East Washington Street,TX,Brownsville
1584,1584,2020-06-03,32.777,-79.931,Meeting Street,SC,Charleston
1585,1585,2020-06-03,34.0,-81.033,Gervais Street,SC,Columbia
1586,1586,2020-06-03,32.779,-96.8,South Akard Street,TX,"Dallas, TX"
1587,1587,2020-06-03,34.83,-82.602,0,SC,Easley
1588,1588,2020-06-03,38.249,-122.041,Texas Street,CA,Fairfield
1589,1589,2020-06-03,37.669,-122.082,Francisco Street,CA,Hayward
1590,1590,2020-06-03,21.307,-157.858,Hotel Street Mall,HI,Honolulu
1591,1591,2020-06-03,36.175,-115.137,Las Vegas Boulevard North,NV,Las Vegas
1592,1592,2020-06-03,34.746,-92.288,Woodlane Street,AR,Little Rock
1593,1593,2020-06-03,33.77,-118.203,Shoreline Drive,CA,Long Beach
1594,1594,2020-06-03,34.043,-118.25,East 7th Street,CA,Los Angeles
1595,1595,2020-06-03,37.236,-121.963,0,CA,Los Gatos
1596,1596,2020-06-03,38.038,-122.538,0,CA,0
1597,1597,2020-06-03,34.867,-92.404,Edgewood Drive,AR,Maumelle
1598,1598,2020-06-03,35.15,-90.04899999999998,North 2nd Street,TN,Memphis
1599,1599,2020-06-03,29.955,-90.075,South Saratoga Street,LA,New Orleans
1600,1600,2020-06-03,37.804,-122.271,Broadway,CA,Oakland
1601,1601,2020-06-03,37.442,-122.145,Byron Street,CA,Palo Alto
1602,1602,2020-06-03,29.428,-98.488,Broadway,TX,San Antonio
1603,1603,2020-06-03,37.779,-122.419,Polk Street,CA,San Francisco
1604,1604,2020-06-03,37.334,-121.891,South Market Street,CA,San Jose
1605,1605,2020-06-03,35.687,-105.939,East San Francisco Street,NM,Santa Fe
1606,1606,2020-06-03,38.441,-122.721,8th Street,CA,Santa Rosa
1607,1607,2020-06-03,37.959,-121.298,North Van Buren Street,CA,Stockton
1608,1608,2020-06-03,32.222,-110.926,East Broadway Boulevard,AZ,Tucson
1609,1609,2020-06-03,32.351,-95.301,West Erwin Street,TX,Tyler
1610,1610,2020-06-03,33.979,-118.03,0,CA,Whittier
1611,1611,2020-06-03,39.29,-76.612,Charles Plaza,MD,Baltimore
1612,1612,2020-06-03,41.482,-81.67,Rockefeller Avenue,OH,Cleveland
1613,1613,2020-06-03,42.335,-83.04799999999999,Broadway Street,MI,Detroit
1614,1614,2020-06-03,39.158,-75.524,Loockerman Plaza,DE,Dover
1615,1615,2020-06-03,39.414,-77.41,East Patrick Street,MD,Frederick
1616,1616,2020-06-03,41.661,-91.53,South Gilbert Street,IA,Iowa City
1617,1617,2020-06-03,55.342,-131.648,Front Street,AK,Ketchikan
1618,1618,2020-06-03,42.734,-84.555,West Ottawa Street,MI,Lansing
1619,1619,2020-06-03,38.041,-84.50399999999998,Avenue of Champions,KY,Lexington
1620,1620,2020-06-03,38.254,-85.759,West Jefferson Street,KY,Louisville
1621,1621,2020-06-03,41.619,-70.495,0,MA,Mashpee
1622,1622,2020-06-03,47.861,-122.206,0,WA,Mill Creek
1623,1623,2020-06-03,44.983,-93.267,Hennepin Avenue,MN,Minneapolis
1624,1624,2020-06-03,39.63,-79.956,0,WV,Morgantown
1625,1625,2020-06-03,40.783,-73.96600000000002,86th Street Transverse Road,NY,New York
1626,1626,2020-06-03,38.245,-78.111,0,VA,Orange
1627,1627,2020-06-03,38.076,-75.568,0,MD,Pocomoke City
1628,1628,2020-06-03,45.523,-122.676,West Burnside Street,OR,Portland
1629,1629,2020-06-03,37.539,-77.434,North 10th Street,VA,Richmond
1630,1630,2020-06-03,39.133,-77.76899999999998,0,VA,Round Hill
1631,1631,2020-06-03,44.938,-123.03,State Street,OR,Salem
1632,1632,2020-06-03,40.778,-111.888,0,UT,Salt Lake City
1633,1633,2020-06-03,47.606,-122.333,Madison Street,WA,Seattle
1634,1634,2020-06-03,42.416,-71.156,0,MA,Arlington
1635,1635,2020-06-03,33.756,-84.39,Forsyth Street Northwest,GA,Atlanta
1636,1636,2020-06-03,33.775,-84.296,0,GA,Decatur
1637,1637,2020-06-03,42.933,-72.28,Federal Street,NH,Keene
1638,1638,2020-06-03,30.224,-92.02,West Vermilion Street,LA,Lafayette
1639,1639,2020-06-03,43.048,-76.14699999999998,South State Street,NY,Syracuse
1640,1640,2020-06-03,42.85,-106.325,East 1st Street,WY,Casper
1641,1641,2020-06-03,31.762,-106.485,North Campbell Street,TX,El Paso
1642,1642,2020-06-03,59.642,-151.549,Homer Bypass Road,AK,Homer
1643,1643,2020-06-03,41.31100000000001,-105.594,East Grand Avenue,WY,Laramie
1644,1644,2020-06-03,38.753,-122.614,0,CA,0
1645,1645,2020-06-03,46.872,-113.994,East Broadway Street,MT,Missoula
1646,1646,2020-06-03,42.03100000000001,-97.426,South 13th Street,NE,Norfolk
1647,1647,2020-06-03,63.874,-160.79399999999995,0,AK,0
1648,1648,2020-06-03,48.412,-114.335,0,MT,Whitefish
1649,1649,2020-06-03,41.395,-73.454,Library Place,CT,Danbury
1650,1650,2020-06-03,38.402,-122.824,0,CA,0
1651,1651,2020-06-03,40.911,-73.782,0,NY,New Rochelle
1652,1652,2020-06-03,40.731,-73.796,174th Street,NY,New York
1653,1653,2020-06-03,41.7,-73.93,0,NY,Poughkeepsie
1654,1654,2020-06-03,37.974,-122.531,Via Sessi,CA,San Rafael
1655,1655,2020-06-03,38.546,-106.925,0,CO,Gunnison
1656,1656,2020-06-03,39.127,-84.514,Cliff Street,OH,Cincinnati
1657,1657,2020-06-03,47.122,-88.569,0,MI,Houghton
1658,1658,2020-06-03,45.82,-88.066,0,MI,Iron Mountain
1659,1659,2020-06-03,43.075,-89.384,East Main Street,WI,Madison
1660,1660,2020-06-03,38.047,-97.345,0,KS,Newton
1661,1661,2020-06-03,46.602,-120.505,East Yakima Avenue,WA,Yakima
1662,1662,2020-06-03,30.487,-90.958,0,LA,Denham Springs
1663,1663,2020-06-03,33.037,-117.292,0,CA,Encinitas
1664,1664,2020-06-03,41.257,-95.934,Farnam Street,NE,Omaha
1665,1665,2020-06-03,32.61,-85.48100000000002,Mitcham Avenue,AL,Auburn
1666,1666,2020-06-03,41.76600000000001,-83.62799999999999,0,MI,0
1667,1667,2020-06-03,32.645,-85.37799999999999,0,AL,Opelika
1668,1668,2020-06-03,33.74,-116.413,0,CA,Rancho Mirage
